city,lat,lng,country,iso2,admin_name,capital,population,population_proper
Budapest,47.4983,19.0408,Hungary,HU,Budapest,primary,1752286,1752286
Debrecen,47.5300,21.6392,Hungary,HU,Hajdú-Bihar,admin,201432,201432
Szeged,46.2500,20.1667,Hungary,HU,Csongrád,admin,160766,160766
Miskolc,48.1000,20.7833,Hungary,HU,Borsod-Abaúj-Zemplén,admin,154521,154521
Pécs,46.0708,18.2331,Hungary,HU,Baranya,admin,142873,142873
Győr,47.6842,17.6344,Hungary,HU,Győr-Moson-Sopron,admin,132034,132034
Nyíregyháza,47.9500,21.7167,Hungary,HU,Szabolcs-Szatmár-Bereg,admin,116799,116799
Kecskemét,46.9074,19.6917,Hungary,HU,Bács-Kiskun,admin,110687,110687
Székesfehérvár,47.2000,18.4167,Hungary,HU,Fejér,admin,96940,96940
Szombathely,47.2333,16.6333,Hungary,HU,Vas,admin,78407,78407
Szolnok,47.1747,20.1764,Hungary,HU,Jász-Nagykun-Szolnok,admin,71285,71285
Érd,47.3833,18.9167,Hungary,HU,Pest,minor,66892,66892
Tatabánya,47.5862,18.3949,Hungary,HU,Komárom-Esztergom,admin,65845,65845
Sopron,47.6833,16.5833,Hungary,HU,Sopron,admin,62454,62454
Kaposvár,46.3667,17.7833,Hungary,HU,Somogy,admin,61441,61441
Veszprém,47.1000,17.9167,Hungary,HU,Veszprém,admin,59738,59738
Békéscsaba,46.6833,21.0833,Hungary,HU,Békés,admin,58996,58996
Zalaegerszeg,46.8392,16.8511,Hungary,HU,Zala,admin,57403,57403
Eger,47.8989,20.3747,Hungary,HU,Heves,admin,52898,52898
Nagykanizsa,46.4558,16.9975,Hungary,HU,Nagykanizsa,admin,46866,46866
Dunaújváros,46.9833,18.9167,Hungary,HU,Dunaújváros,admin,44200,44200
Dunakeszi,47.6297,19.1381,Hungary,HU,Pest,minor,43490,43490
Hódmezővásárhely,46.4303,20.3189,Hungary,HU,Hódmezővásárhely,admin,43311,43311
Szigetszentmiklós,47.3453,19.0483,Hungary,HU,Pest,minor,38591,38591
Vác,47.7753,19.1311,Hungary,HU,Pest,minor,36310,36310
Cegléd,47.1772,19.7981,Hungary,HU,Pest,minor,35523,35523
Baja,46.1833,18.9536,Hungary,HU,Bács-Kiskun,minor,34788,34788
Salgótarján,48.0853,19.7867,Hungary,HU,Nógrád,admin,33579,33579
Mosonmagyaróvár,47.8667,17.2667,Hungary,HU,Győr-Moson-Sopron,minor,33318,33318
Ózd,48.2192,20.2869,Hungary,HU,Borsod-Abaúj-Zemplén,minor,32564,32564
Gödöllő,47.6000,19.3667,Hungary,HU,Pest,minor,32131,32131
Szekszárd,46.3558,18.7039,Hungary,HU,Tolna,admin,31795,31795
Hajdúböszörmény,47.6667,21.5167,Hungary,HU,Hajdú-Bihar,minor,30704,30704
Pápa,47.3306,17.4658,Hungary,HU,Veszprém,minor,30382,30382
Gyöngyös,47.7833,19.9333,Hungary,HU,Heves,minor,29337,29337
Gyula,46.6500,21.2828,Hungary,HU,Békés,minor,29308,29308
Kiskunfélegyháza,46.7050,19.8500,Hungary,HU,Bács-Kiskun,minor,29306,29306
Budaörs,47.4606,18.9578,Hungary,HU,Pest,,28844,28844
Esztergom,47.7856,18.7403,Hungary,HU,Komárom-Esztergom,minor,28144,28144
Ajka,47.1006,17.5522,Hungary,HU,Veszprém,minor,27995,27995
Orosháza,46.5678,20.6428,Hungary,HU,Békés,minor,27492,27492
Jászberény,47.5000,19.9167,Hungary,HU,Jász-Nagykun-Szolnok,minor,27439,27439
Szentes,46.6519,20.2572,Hungary,HU,Csongrád,minor,27080,27080
Kiskunhalas,46.4319,19.4883,Hungary,HU,Bács-Kiskun,minor,27017,27017
Szentendre,47.6733,19.0725,Hungary,HU,Pest,minor,26447,26447
Kazincbarcika,48.2531,20.6456,Hungary,HU,Borsod-Abaúj-Zemplén,minor,26337,26337
Siófok,46.9000,18.0500,Hungary,HU,Somogy,minor,25461,25461
Hajdúszoboszló,47.4500,21.3833,Hungary,HU,Hajdú-Bihar,minor,23873,23873
Gyál,47.3822,19.2136,Hungary,HU,Pest,minor,23628,23628
Nagykőrös,47.0331,19.7839,Hungary,HU,Pest,minor,23605,23605
Tata,47.6500,18.3167,Hungary,HU,Komárom-Esztergom,minor,23377,23377
Komló,46.1911,18.2611,Hungary,HU,Baranya,minor,22635,22635
Makó,46.2200,20.4789,Hungary,HU,Csongrád,minor,22514,22514
Dunaharaszti,47.3553,19.0844,Hungary,HU,Pest,,21901,21901
Vecsés,47.4108,19.2722,Hungary,HU,Pest,minor,20935,20935
Hatvan,47.6681,19.6697,Hungary,HU,Heves,minor,20167,20167
Törökszentmiklós,47.1833,20.4167,Hungary,HU,Jász-Nagykun-Szolnok,minor,19890,19890
Karcag,47.3167,20.9333,Hungary,HU,Jász-Nagykun-Szolnok,minor,19732,19732
Fót,47.6092,19.1928,Hungary,HU,Pest,,19674,19674
Várpalota,47.1972,18.1394,Hungary,HU,Veszprém,minor,19484,19484
Keszthely,46.7675,17.2463,Hungary,HU,Zala,minor,19387,19387
Komárom,47.7400,18.1217,Hungary,HU,Komárom-Esztergom,minor,18805,18805
Paks,46.6219,18.8558,Hungary,HU,Tolna,minor,18788,18788
Veresegyház,47.6569,19.2847,Hungary,HU,Pest,,18654,18654
Békés,46.7769,21.1250,Hungary,HU,Békés,minor,18322,18322
Gyömrő,47.4353,19.3986,Hungary,HU,Pest,,18301,18301
Százhalombatta,47.3167,18.9114,Hungary,HU,Pest,,18241,18241
Göd,47.6906,19.1344,Hungary,HU,Pest,,18218,18218
Oroszlány,47.4892,18.3164,Hungary,HU,Komárom-Esztergom,minor,18171,18171
Monor,47.3475,19.4489,Hungary,HU,Pest,minor,18084,18084
Dombóvár,46.3769,18.1310,Hungary,HU,Tolna,minor,17995,17995
Szigethalom,47.3228,19.0128,Hungary,HU,Pest,,17596,17596
Pomáz,47.6472,19.0269,Hungary,HU,Pest,,17139,17139
Balmazújváros,47.6167,21.3500,Hungary,HU,Hajdú-Bihar,minor,17109,17109
Mohács,45.9958,18.6797,Hungary,HU,Baranya,minor,17089,17089
Dabas,47.1833,19.3167,Hungary,HU,Pest,minor,17023,17023
Hajdúnánás,47.8500,21.4333,Hungary,HU,Hajdú-Bihar,minor,16828,16828
Mátészalka,47.9431,22.3167,Hungary,HU,Szabolcs-Szatmár-Bereg,minor,16576,16576
Mezőkövesd,47.8067,20.5647,Hungary,HU,Borsod-Abaúj-Zemplén,minor,16107,16107
Mezőtúr,47.0042,20.6181,Hungary,HU,Jász-Nagykun-Szolnok,minor,16086,16086
Kisvárda,48.2264,22.0844,Hungary,HU,Szabolcs-Szatmár-Bereg,minor,16084,16084
Csongrád,46.7111,20.1403,Hungary,HU,Csongrád,minor,16027,16027
Pécel,47.4911,19.3419,Hungary,HU,Pest,,15987,15987
Szarvas,46.8500,20.6000,Hungary,HU,Békés,minor,15565,15565
Kalocsa,46.5333,18.9856,Hungary,HU,Bács-Kiskun,minor,15490,15490
Tiszaújváros,47.9228,21.0519,Hungary,HU,Borsod-Abaúj-Zemplén,minor,15371,15371
Tapolca,46.8828,17.4411,Hungary,HU,Veszprém,minor,15072,15072
Sárvár,47.2539,16.9353,Hungary,HU,Vas,minor,15072,15072
Balassagyarmat,48.0712,19.2937,Hungary,HU,Nógrád,minor,14873,14873
Berettyóújfalu,47.2167,21.5500,Hungary,HU,Hajdú-Bihar,minor,14690,14690
Abony,47.1892,20.0053,Hungary,HU,Pest,,14392,14392
Budakeszi,47.5111,18.9300,Hungary,HU,Pest,minor,14330,14330
Püspökladány,47.3197,21.1139,Hungary,HU,Hajdú-Bihar,minor,14154,14154
Pilisvörösvár,47.6211,18.9108,Hungary,HU,Pest,minor,14148,14148
Sátoraljaújhely,48.3941,21.6561,Hungary,HU,Borsod-Abaúj-Zemplén,minor,13972,13972
Mór,47.3717,18.2086,Hungary,HU,Fejér,minor,13936,13936
Biatorbágy,47.4742,18.8236,Hungary,HU,Pest,,13889,13889
Kiskőrös,46.6203,19.2836,Hungary,HU,Bács-Kiskun,minor,13833,13833
Törökbálint,47.4356,18.9156,Hungary,HU,Pest,,13655,13655
Bonyhád,46.3000,18.5300,Hungary,HU,Tolna,minor,12982,12982
Hajdúsámson,47.6000,21.7667,Hungary,HU,Hajdú-Bihar,,12961,12961
Balatonfüred,46.9500,17.8833,Hungary,HU,Veszprém,minor,12923,12923
Gyomaendrőd,46.9361,20.8233,Hungary,HU,Békés,minor,12784,12784
Újfehértó,47.8000,21.6833,Hungary,HU,Szabolcs-Szatmár-Bereg,,12736,12736
Hajdúhadház,47.6833,21.6667,Hungary,HU,Hajdú-Bihar,minor,12669,12669
Albertirsa,47.2400,19.6067,Hungary,HU,Pest,,12532,12532
Tiszavasvári,47.9511,21.3689,Hungary,HU,Szabolcs-Szatmár-Bereg,minor,12508,12508
Maglód,47.4439,19.3525,Hungary,HU,Pest,,12341,12341
Nagykáta,47.4178,19.7414,Hungary,HU,Pest,minor,12280,12280
Kerepestarcsa,47.5478,19.2633,Hungary,HU,Pest,,12212,12212
Tiszakécske,46.9311,20.0950,Hungary,HU,Bács-Kiskun,minor,11990,11990
Bicske,47.4907,18.6363,Hungary,HU,Fejér,minor,11969,11969
Üllő,47.3842,19.3444,Hungary,HU,Pest,,11949,11949
Sárbogárd,46.8878,18.6193,Hungary,HU,Fejér,minor,11937,11937
Dorog,47.7194,18.7292,Hungary,HU,Komárom-Esztergom,,11883,11883
Nyírbátor,47.8353,22.1300,Hungary,HU,Szabolcs-Szatmár-Bereg,minor,11831,11831
Bátonyterenye,47.9892,19.8286,Hungary,HU,Nógrád,minor,11829,11829
Kőszeg,47.3817,16.5519,Hungary,HU,Vas,minor,11805,11805
Sárospatak,48.3189,21.5661,Hungary,HU,Borsod-Abaúj-Zemplén,minor,11768,11768
Sajószentpéter,48.2169,20.7183,Hungary,HU,Borsod-Abaúj-Zemplén,,11679,11679
Pilis,47.2858,19.5469,Hungary,HU,Pest,,11678,11678
Isaszeg,47.5333,19.4000,Hungary,HU,Pest,,11470,11470
Lajosmizse,47.0264,19.5575,Hungary,HU,Bács-Kiskun,,11334,11334
Körmend,47.0110,16.6060,Hungary,HU,Vas,minor,11236,11236
Gárdony,47.1973,18.6091,Hungary,HU,Fejér,minor,11204,11204
Marcali,46.5831,17.4064,Hungary,HU,Somogy,minor,11169,11169
Tolna,46.4167,18.7833,Hungary,HU,Tolna,minor,10987,10987
Kiskunmajsa,46.4922,19.7367,Hungary,HU,Bács-Kiskun,minor,10968,10968
Budakalász,47.6215,19.0460,Hungary,HU,Pest,,10924,10924
Kisújszállás,47.2167,20.7667,Hungary,HU,Jász-Nagykun-Szolnok,,10870,10870
Tiszafüred,47.6190,20.7600,Hungary,HU,Jász-Nagykun-Szolnok,minor,10745,10745
Tiszaföldvár,46.9833,20.2500,Hungary,HU,Jász-Nagykun-Szolnok,,10672,10672
Celldömölk,47.2575,17.1525,Hungary,HU,Vas,minor,10646,10646
Ráckeve,47.1608,18.9456,Hungary,HU,Pest,minor,10605,10605
Halásztelek,47.3608,18.9878,Hungary,HU,Pest,,10581,10581
Diósd,47.4042,18.9458,Hungary,HU,Pest,,10518,10518
Barcs,45.9600,17.4600,Hungary,HU,Somogy,minor,10501,10501
Szigetvár,46.0481,17.8125,Hungary,HU,Baranya,minor,10421,10421
Solymár,47.5910,18.9290,Hungary,HU,Pest,,10418,10418
Kapuvár,47.6000,17.0331,Hungary,HU,Győr-Moson-Sopron,minor,10281,10281
Heves,47.6000,20.2833,Hungary,HU,Heves,minor,10275,10275
Csorna,47.6167,17.2500,Hungary,HU,Győr-Moson-Sopron,minor,10228,10228
Nagyatád,46.2294,17.3575,Hungary,HU,Somogy,minor,10212,10212
Tököl,47.3219,18.9619,Hungary,HU,Pest,,10116,10116
Mezőberény,46.8256,21.0289,Hungary,HU,Békés,,9809,9809
Csömör,47.5467,19.2244,Hungary,HU,Pest,,9779,9779
Sarkad,46.7400,21.3778,Hungary,HU,Békés,minor,9677,9677
Tárnok,47.3597,18.8586,Hungary,HU,Pest,,9654,9654
Edelény,48.2967,20.7442,Hungary,HU,Borsod-Abaúj-Zemplén,minor,9389,9389
Ócsa,47.2933,19.2258,Hungary,HU,Pest,,9325,9325
Nagykálló,47.8831,21.8500,Hungary,HU,Szabolcs-Szatmár-Bereg,minor,9214,9214
Pásztó,47.9194,19.6978,Hungary,HU,Nógrád,minor,9124,9124
Siklós,45.8519,18.2986,Hungary,HU,Baranya,minor,8912,8912
Kiskunlacháza,47.2000,19.0167,Hungary,HU,Pest,,8876,8876
Szentgotthárd,46.9525,16.2736,Hungary,HU,Vas,minor,8864,8864
Szeghalom,47.0239,21.1678,Hungary,HU,Békés,minor,8680,8680
Hajdúdorog,47.8167,21.5000,Hungary,HU,Hajdú-Bihar,,8677,8677
Szerencs,48.1622,21.2050,Hungary,HU,Borsod-Abaúj-Zemplén,minor,8676,8676
Balatonalmádi,47.0292,18.0219,Hungary,HU,Veszprém,minor,8640,8640
Nádudvar,47.4167,21.1667,Hungary,HU,Hajdú-Bihar,,8636,8636
Vásárosnamény,48.1267,22.3183,Hungary,HU,Szabolcs-Szatmár-Bereg,minor,8618,8618
Dunaföldvár,46.8000,18.9167,Hungary,HU,Tolna,,8593,8593
Túrkeve,47.1000,20.7500,Hungary,HU,Jász-Nagykun-Szolnok,,8462,8462
Kecel,46.5250,19.2547,Hungary,HU,Bács-Kiskun,,8406,8406
Derecske,47.3537,21.5718,Hungary,HU,Hajdú-Bihar,minor,8403,8403
Piliscsaba,47.6336,18.8269,Hungary,HU,Pest,,8391,8391
Jánoshalma,46.2967,19.3228,Hungary,HU,Bács-Kiskun,minor,8336,8336
Jászapáti,47.5125,20.1417,Hungary,HU,Jász-Nagykun-Szolnok,,8313,8313
Kunszentmiklós,47.0264,19.1228,Hungary,HU,Bács-Kiskun,minor,8248,8248
Dunavarsány,47.2828,19.0661,Hungary,HU,Pest,,8141,8141
Ercsi,47.2496,18.8910,Hungary,HU,Fejér,,8065,8065
Kunszentmárton,46.8400,20.2900,Hungary,HU,Jász-Nagykun-Szolnok,minor,8034,8034
Erdőkertes,47.6749,19.3158,Hungary,HU,Pest,,7992,7992
Tamási,46.6167,18.3000,Hungary,HU,Tolna,minor,7986,7986
Fehérgyarmat,47.9850,22.5169,Hungary,HU,Szabolcs-Szatmár-Bereg,minor,7981,7981
Polgár,47.8663,21.1242,Hungary,HU,Hajdú-Bihar,,7889,7889
Nagykovácsi,47.5800,18.8800,Hungary,HU,Pest,,7850,7850
Tura,47.6067,19.5967,Hungary,HU,Pest,,7761,7761
Sándorfalva,46.3667,20.1000,Hungary,HU,Csongrád,,7756,7756
Jászárokszállás,47.6333,19.9833,Hungary,HU,Jász-Nagykun-Szolnok,,7691,7691
Nyíradony,47.6833,21.9167,Hungary,HU,Hajdú-Bihar,minor,7677,7677
Kunhegyes,47.3700,20.6308,Hungary,HU,Jász-Nagykun-Szolnok,minor,7521,7521
Páty,47.5167,18.8333,Hungary,HU,Pest,,7476,7476
Üröm,47.6000,19.0167,Hungary,HU,Pest,,7454,7454
Füzesabony,47.7510,20.4090,Hungary,HU,Heves,minor,7412,7412
Őrbottyán,47.6872,19.2832,Hungary,HU,Pest,,7370,7370
Dévaványa,47.0300,20.9589,Hungary,HU,Békés,,7363,7363
Lenti,46.6236,16.5458,Hungary,HU,Zala,minor,7348,7348
Soltvadkert,46.5808,19.3936,Hungary,HU,Bács-Kiskun,,7342,7342
Nyergesújfalu,47.7603,18.5567,Hungary,HU,Komárom-Esztergom,,7255,7255
Létavértes,47.3833,21.9000,Hungary,HU,Hajdú-Bihar,,7061,7061
Kistelek,46.4731,19.9800,Hungary,HU,Csongrád,minor,6917,6917
Polgárdi,47.0538,18.3049,Hungary,HU,Fejér,minor,6917,6917
Mogyoród,47.6000,19.2500,Hungary,HU,Pest,,6893,6893
Vésztő,46.9256,21.2639,Hungary,HU,Békés,,6855,6855
Zirc,47.2633,17.8725,Hungary,HU,Veszprém,minor,6805,6805
Ács,47.7100,18.0156,Hungary,HU,Komárom-Esztergom,,6771,6771
Enying,46.9296,18.2430,Hungary,HU,Fejér,minor,6655,6655
Ibrány,48.1282,21.7135,Hungary,HU,Szabolcs-Szatmár-Bereg,minor,6648,6648
Mindszent,46.5250,20.1850,Hungary,HU,Csongrád,,6560,6560
Nyírtelek,48.0094,21.6322,Hungary,HU,Szabolcs-Szatmár-Bereg,,6555,6555
Felsőzsolca,48.1083,20.8556,Hungary,HU,Borsod-Abaúj-Zemplén,,6521,6521
Kerekegyháza,46.9369,19.4769,Hungary,HU,Bács-Kiskun,,6509,6509
Putnok,48.2936,20.4367,Hungary,HU,Borsod-Abaúj-Zemplén,minor,6492,6492
Bácsalmás,46.1239,19.3261,Hungary,HU,Bács-Kiskun,minor,6453,6453
Téglás,47.7167,21.6833,Hungary,HU,Hajdú-Bihar,,6406,6406
Győrújbarát,47.6079,17.6464,Hungary,HU,Győr-Moson-Sopron,,6401,6401
Nagyecsed,47.8619,22.3867,Hungary,HU,Szabolcs-Szatmár-Bereg,,6327,6327
Zalaszentgrót,46.9469,17.0789,Hungary,HU,Zala,minor,6263,6263
Encs,48.3306,21.1217,Hungary,HU,Borsod-Abaúj-Zemplén,minor,6254,6254
Fegyvernek,47.2667,20.5333,Hungary,HU,Jász-Nagykun-Szolnok,,6246,6246
Balkány,47.7694,21.8569,Hungary,HU,Szabolcs-Szatmár-Bereg,,6238,6238
Bátaszék,46.1833,18.7167,Hungary,HU,Tolna,,6217,6217
Kozármisleny,46.0289,18.2925,Hungary,HU,Baranya,,6215,6215
Taksony,47.3319,19.0631,Hungary,HU,Pest,,6189,6189
Aszód,47.6514,19.4894,Hungary,HU,Pest,minor,6184,6184
Szentlőrinc,46.0422,17.9856,Hungary,HU,Baranya,minor,6184,6184
Martfů,47.0170,20.2840,Hungary,HU,Jász-Nagykun-Szolnok,,6169,6169
Mórahalom,46.2167,19.8833,Hungary,HU,Csongrád,minor,6145,6145
Solt,46.8008,19.0042,Hungary,HU,Bács-Kiskun,,6125,6125
Szabadszállás,46.8761,19.2217,Hungary,HU,Bács-Kiskun,,6121,6121
Tápiószecső,47.4500,19.6000,Hungary,HU,Pest,,6083,6083
Jánossomorja,47.7852,17.1359,Hungary,HU,Győr-Moson-Sopron,,6052,6052
Újszász,47.3000,20.0833,Hungary,HU,Jász-Nagykun-Szolnok,,6043,6043
Sümeg,46.9775,17.2817,Hungary,HU,Veszprém,minor,6037,6037
Tótkomlós,46.4169,20.7328,Hungary,HU,Békés,,5995,5995
Kaba,47.3557,21.2742,Hungary,HU,Hajdú-Bihar,,5878,5878
Pusztaszabolcs,47.1413,18.7594,Hungary,HU,Fejér,,5845,5845
Berhida,47.1131,18.1342,Hungary,HU,Veszprém,,5833,5833
Tápiószele,47.3333,19.8833,Hungary,HU,Pest,,5827,5827
Balatonboglár,46.7667,17.6667,Hungary,HU,Somogy,,5798,5798
Mezőkovácsháza,46.4119,20.9108,Hungary,HU,Békés,minor,5787,5787
Füzesgyarmat,47.1058,21.2119,Hungary,HU,Békés,,5774,5774
Jászfényszaru,47.5667,19.7167,Hungary,HU,Jász-Nagykun-Szolnok,,5757,5757
Tahitófalu,47.7522,19.0781,Hungary,HU,Pest,,5722,5722
Szécsény,48.0808,19.5194,Hungary,HU,Nógrád,minor,5695,5695
Dömsöd,47.0833,19.0000,Hungary,HU,Pest,,5694,5694
Nagyhalász,48.1333,21.7583,Hungary,HU,Szabolcs-Szatmár-Bereg,,5676,5676
Martonvásár,47.3140,18.7885,Hungary,HU,Fejér,minor,5672,5672
Hosszúpályi,47.4000,21.7500,Hungary,HU,Hajdú-Bihar,,5662,5662
Mezőcsát,47.8233,20.9028,Hungary,HU,Borsod-Abaúj-Zemplén,minor,5661,5661
Kartal,47.6675,19.5283,Hungary,HU,Pest,,5650,5650
Zsámbék,47.5483,18.7186,Hungary,HU,Pest,,5569,5569
Izsák,46.8014,19.3587,Hungary,HU,Bács-Kiskun,,5567,5567
Lőrinci,47.7378,19.6786,Hungary,HU,Heves,,5557,5557
Velence,47.2418,18.6479,Hungary,HU,Fejér,,5552,5552
Battonya,46.2833,21.0167,Hungary,HU,Békés,,5516,5516
Szada,47.6333,19.3167,Hungary,HU,Pest,,5428,5428
Jászladány,47.3667,20.1667,Hungary,HU,Jász-Nagykun-Szolnok,,5426,5426
Komádi,47.0000,21.5000,Hungary,HU,Hajdú-Bihar,,5421,5421
Vámospércs,47.5266,21.8984,Hungary,HU,Hajdú-Bihar,,5362,5362
Kisbér,47.5017,18.0267,Hungary,HU,Komárom-Esztergom,minor,5336,5336
Kunmadaras,47.4333,20.8000,Hungary,HU,Jász-Nagykun-Szolnok,,5306,5306
Tát,47.7407,18.6447,Hungary,HU,Komárom-Esztergom,,5280,5280
Szikszó,48.1950,20.9461,Hungary,HU,Borsod-Abaúj-Zemplén,minor,5278,5278
Rákóczifalva,47.0833,20.2333,Hungary,HU,Jász-Nagykun-Szolnok,,5256,5256
Alsónémedi,47.3137,19.1665,Hungary,HU,Pest,,5235,5235
Tiszalök,48.0197,21.3778,Hungary,HU,Szabolcs-Szatmár-Bereg,,5234,5234
Csákvár,47.3933,18.4605,Hungary,HU,Fejér,,5225,5225
Balatonlelle,46.7822,17.6757,Hungary,HU,Somogy,,5223,5223
Tápiószentmárton,47.3404,19.7438,Hungary,HU,Pest,,5198,5198
Bugyi,47.2233,19.1499,Hungary,HU,Pest,,5174,5174
Jászkisér,47.4500,20.2167,Hungary,HU,Jász-Nagykun-Szolnok,,5167,5167
Egyek,47.6317,20.8889,Hungary,HU,Hajdú-Bihar,,5071,5071
Tiszalúc,48.0367,21.0629,Hungary,HU,Borsod-Abaúj-Zemplén,,5064,5064
Tiszaalpár,46.8167,19.9833,Hungary,HU,Bács-Kiskun,,5010,5010
Csenger,47.8350,22.6822,Hungary,HU,Szabolcs-Szatmár-Bereg,minor,4961,4961
Mezőhegyes,46.3150,20.8178,Hungary,HU,Békés,,4945,4945
Domaszék,46.2500,20.0167,Hungary,HU,Csongrád,,4919,4919
Újkígyós,46.5833,21.0333,Hungary,HU,Békés,,4897,4897
Nyírmada,48.0667,22.1881,Hungary,HU,Szabolcs-Szatmár-Bereg,,4890,4890
Nyékládháza,47.9917,20.8369,Hungary,HU,Borsod-Abaúj-Zemplén,,4876,4876
Kondoros,46.7500,20.8000,Hungary,HU,Békés,,4867,4867
Lábatlan,47.7469,18.4961,Hungary,HU,Komárom-Esztergom,,4839,4839
Fonyód,46.7412,17.5503,Hungary,HU,Somogy,minor,4829,4829
Nagymaros,47.7867,18.9586,Hungary,HU,Pest,,4821,4821
Szentmártonkáta,47.4500,19.7000,Hungary,HU,Pest,,4810,4810
Emőd,47.9331,20.8167,Hungary,HU,Borsod-Abaúj-Zemplén,,4785,4785
Kemecse,48.0683,21.8014,Hungary,HU,Szabolcs-Szatmár-Bereg,minor,4777,4777
Mélykút,46.2139,19.3796,Hungary,HU,Bács-Kiskun,,4763,4763
Örkény,47.1272,19.4278,Hungary,HU,Pest,,4753,4753
Onga,48.1190,20.9074,Hungary,HU,Borsod-Abaúj-Zemplén,,4746,4746
Csurgó,46.2667,17.1000,Hungary,HU,Somogy,minor,4741,4741
Tiszacsege,47.7000,21.0000,Hungary,HU,Hajdú-Bihar,,4713,4713
Mezőfalva,46.9378,18.7867,Hungary,HU,Fejér,,4677,4677
Szatymaz,46.3500,20.0500,Hungary,HU,Csongrád,,4675,4675
Csorvás,46.6347,20.8333,Hungary,HU,Békés,,4652,4652
Hévíz,46.7906,17.1842,Hungary,HU,Veszprém,,4634,4634
Nagyszénás,46.6833,20.6667,Hungary,HU,Békés,,4634,4634
Harkány,45.8475,18.2367,Hungary,HU,Baranya,,4632,4632
Nagytarcsa,47.5258,19.2862,Hungary,HU,Pest,,4609,4609
Inárcs,47.2667,19.3333,Hungary,HU,Pest,,4590,4590
Rácalmás,47.0253,18.9404,Hungary,HU,Fejér,,4572,4572
Helvécia,46.8333,19.6167,Hungary,HU,Bács-Kiskun,,4557,4557
Körösladány,46.9639,21.0789,Hungary,HU,Békés,,4557,4557
Lakitelek,46.8833,19.9833,Hungary,HU,Bács-Kiskun,,4547,4547
Sződliget,47.7333,19.1500,Hungary,HU,Pest,,4529,4529
Szabadbattyán,47.1180,18.3629,Hungary,HU,Fejér,,4518,4518
Elek,46.5278,21.2469,Hungary,HU,Békés,,4513,4513
Dány,47.5193,19.5452,Hungary,HU,Pest,,4509,4509
Mikepércs,47.4500,21.6333,Hungary,HU,Hajdú-Bihar,,4480,4480
Kótaj,48.0500,21.7167,Hungary,HU,Szabolcs-Szatmár-Bereg,,4436,4436
Aba,47.0307,18.5233,Hungary,HU,Fejér,,4426,4426
Ebes,47.4667,21.5000,Hungary,HU,Hajdú-Bihar,,4388,4388
Szegvár,46.5833,20.2333,Hungary,HU,Csongrád,,4385,4385
Környe,47.5453,18.3270,Hungary,HU,Komárom-Esztergom,,4379,4379
Rakamaz,48.1175,21.4778,Hungary,HU,Szabolcs-Szatmár-Bereg,,4374,4374
Kóka,47.4865,19.5788,Hungary,HU,Pest,,4358,4358
Seregélyes,47.1109,18.5773,Hungary,HU,Fejér,,4342,4342
Tószeg,47.1000,20.1500,Hungary,HU,Jász-Nagykun-Szolnok,,4331,4331
Kenderes,47.2500,20.6833,Hungary,HU,Jász-Nagykun-Szolnok,,4321,4321
Nyúl,47.5905,17.6890,Hungary,HU,Győr-Moson-Sopron,,4307,4307
Délegyháza,47.2500,19.0667,Hungary,HU,Pest,,4306,4306
Tompa,46.2047,19.5472,Hungary,HU,Bács-Kiskun,,4295,4295
Tab,46.7327,18.0356,Hungary,HU,Somogy,minor,4286,4286
Ceglédbercel,47.2225,19.6664,Hungary,HU,Pest,,4284,4284
Törtel,47.1167,19.9333,Hungary,HU,Pest,,4264,4264
Szendrő,48.4033,20.7283,Hungary,HU,Borsod-Abaúj-Zemplén,,4260,4260
Záhony,48.4069,22.1744,Hungary,HU,Szabolcs-Szatmár-Bereg,minor,4236,4236
Pilisszentiván,47.6167,18.9000,Hungary,HU,Pest,,4226,4226
Csemő,47.1167,19.7000,Hungary,HU,Pest,,4206,4206
Demecser,48.1136,21.9200,Hungary,HU,Szabolcs-Szatmár-Bereg,,4205,4205
Devecser,47.1061,17.4372,Hungary,HU,Veszprém,minor,4196,4196
Szirmabesenyő,48.1496,20.7958,Hungary,HU,Borsod-Abaúj-Zemplén,,4181,4181
Vasvár,47.0508,16.7983,Hungary,HU,Vas,minor,4171,4171
Mende,47.4294,19.4576,Hungary,HU,Pest,,4149,4149
Biharkeresztes,47.1333,21.7167,Hungary,HU,Hajdú-Bihar,,4149,4149
Mándok,48.3225,22.1911,Hungary,HU,Szabolcs-Szatmár-Bereg,,4143,4143
Balatonfůzfő,47.0636,18.0389,Hungary,HU,Veszprém,,4142,4142
Abádszalók,47.4750,20.5989,Hungary,HU,Jász-Nagykun-Szolnok,,4129,4129
Etyek,47.4472,18.7496,Hungary,HU,Fejér,,4112,4112
Tét,47.5167,17.5167,Hungary,HU,Győr-Moson-Sopron,minor,4097,4097
Fadd,46.4665,18.8202,Hungary,HU,Tolna,,4083,4083
Tokaj,48.1200,21.4100,Hungary,HU,Borsod-Abaúj-Zemplén,minor,4069,4069
Bodajk,47.3243,18.2318,Hungary,HU,Fejér,,4066,4066
Simontornya,46.7541,18.5475,Hungary,HU,Tolna,,4051,4051
Tokod,47.7227,18.6579,Hungary,HU,Komárom-Esztergom,,4036,4036
Nagyvenyim,46.9590,18.8590,Hungary,HU,Fejér,,4024,4024
Pannonhalma,47.5486,17.7483,Hungary,HU,Győr-Moson-Sopron,minor,4021,4021
Mályi,48.0147,20.8233,Hungary,HU,Borsod-Abaúj-Zemplén,,4016,4016
Dombrád,48.2289,21.9269,Hungary,HU,Szabolcs-Szatmár-Bereg,,4015,4015
Doboz,46.7333,21.2500,Hungary,HU,Békés,,4006,4006
Telki,47.5500,18.8333,Hungary,HU,Pest,,4005,4005
Letenye,46.4336,16.7222,Hungary,HU,Zala,minor,4001,4001
Pécsvárad,46.1581,18.4219,Hungary,HU,Baranya,minor,3982,3982
Földes,47.2876,21.3653,Hungary,HU,Hajdú-Bihar,,3980,3980
Hernád,47.1625,19.4331,Hungary,HU,Pest,,3975,3975
Perkáta,47.0480,18.7834,Hungary,HU,Fejér,,3923,3923
Baktalórántháza,47.9975,22.0764,Hungary,HU,Szabolcs-Szatmár-Bereg,minor,3918,3918
Cibakháza,46.9667,20.2000,Hungary,HU,Jász-Nagykun-Szolnok,,3918,3918
Adony,47.1189,18.8654,Hungary,HU,Fejér,,3880,3880
Ásotthalom,46.2000,19.7833,Hungary,HU,Csongrád,,3856,3856
Fertőszentmiklós,47.5853,16.8705,Hungary,HU,Győr-Moson-Sopron,,3854,3854
Ecser,47.4444,19.3260,Hungary,HU,Pest,,3846,3846
Bóly,45.9672,18.5181,Hungary,HU,Baranya,minor,3824,3824
Mezőkeresztes,47.8254,20.6881,Hungary,HU,Borsod-Abaúj-Zemplén,,3818,3818
Decs,46.2846,18.7569,Hungary,HU,Tolna,,3802,3802
Nyíracsád,47.6000,21.9833,Hungary,HU,Hajdú-Bihar,,3800,3800
Bábolna,47.6417,17.9786,Hungary,HU,Komárom-Esztergom,,3789,3789
Verpelét,47.8480,20.2260,Hungary,HU,Heves,,3780,3780
Nyírábrány,47.5500,22.0333,Hungary,HU,Hajdú-Bihar,,3777,3777
Dunavecse,46.9136,18.9722,Hungary,HU,Bács-Kiskun,,3769,3769
Szajol,47.1833,20.3000,Hungary,HU,Jász-Nagykun-Szolnok,,3733,3733
Ajak,48.1836,22.0481,Hungary,HU,Szabolcs-Szatmár-Bereg,,3730,3730
Nyáregyháza,47.2616,19.5089,Hungary,HU,Pest,,3727,3727
Pilisborosjenő,47.6060,18.9919,Hungary,HU,Pest,,3725,3725
Kiszombor,46.1833,20.4333,Hungary,HU,Csongrád,,3722,3722
Leányfalu,47.7267,19.0894,Hungary,HU,Pest,,3714,3714
Bag,47.6357,19.4837,Hungary,HU,Pest,,3703,3703
Sződ,47.7167,19.2000,Hungary,HU,Pest,,3667,3667
Napkor,47.9333,21.8833,Hungary,HU,Szabolcs-Szatmár-Bereg,,3664,3664
Gyenesdiás,46.7707,17.2930,Hungary,HU,Zala,,3650,3650
Hort,47.6900,19.7800,Hungary,HU,Heves,,3634,3634
Ballószög,46.8667,19.5833,Hungary,HU,Bács-Kiskun,,3633,3633
Békésszentandrás,46.8667,20.4833,Hungary,HU,Békés,,3608,3608
Taktaharkány,48.0910,21.1280,Hungary,HU,Borsod-Abaúj-Zemplén,,3594,3594
Kápolnásnyék,47.2430,18.6846,Hungary,HU,Fejér,,3590,3590
Arló,48.1728,20.2599,Hungary,HU,Borsod-Abaúj-Zemplén,,3554,3554
Bük,47.3864,16.7494,Hungary,HU,Vas,,3544,3544
Kengyel,47.0833,20.3333,Hungary,HU,Jász-Nagykun-Szolnok,,3538,3538
Kállósemjén,47.8586,21.9306,Hungary,HU,Szabolcs-Szatmár-Bereg,,3537,3537
Felsőpakony,47.3433,19.2393,Hungary,HU,Pest,,3536,3536
Kál,47.7305,20.2628,Hungary,HU,Heves,,3519,3519
Vaja,47.9994,22.1711,Hungary,HU,Szabolcs-Szatmár-Bereg,,3515,3515
Felsőtárkány,47.9730,20.4170,Hungary,HU,Heves,,3506,3506
Gádoros,46.6667,20.6000,Hungary,HU,Békés,,3481,3481
Gávavencsellő,48.1606,21.5950,Hungary,HU,Szabolcs-Szatmár-Bereg,,3481,3481
Deszk,46.2167,20.2500,Hungary,HU,Csongrád,,3461,3461
Érsekvadkert,47.9966,19.1990,Hungary,HU,Nógrád,,3461,3461
Sükösd,46.2833,19.0000,Hungary,HU,Bács-Kiskun,,3455,3455
Medgyesegyháza,46.5000,21.0300,Hungary,HU,Békés,,3451,3451
Tuzsér,48.3358,22.1203,Hungary,HU,Szabolcs-Szatmár-Bereg,,3444,3444
Zagyvarékas,47.2667,20.1333,Hungary,HU,Jász-Nagykun-Szolnok,,3440,3440
Balástya,46.4167,20.0167,Hungary,HU,Csongrád,,3422,3422
Hernádnémeti,48.0795,20.9724,Hungary,HU,Borsod-Abaúj-Zemplén,,3421,3421
Orgovány,46.7500,19.4667,Hungary,HU,Bács-Kiskun,,3416,3416
Farmos,47.3667,19.8500,Hungary,HU,Pest,,3415,3415
Tápióbicske,47.3625,19.6872,Hungary,HU,Pest,,3409,3409
Hegyeshalom,47.9129,17.1544,Hungary,HU,Győr-Moson-Sopron,,3387,3387
Herend,47.1325,17.7511,Hungary,HU,Veszprém,,3384,3384
Hosszúhetény,46.1633,18.3514,Hungary,HU,Baranya,,3383,3383
Hodász,47.9194,22.1994,Hungary,HU,Szabolcs-Szatmár-Bereg,,3380,3380
Baracs,46.9105,18.8664,Hungary,HU,Fejér,,3362,3362
Fertőd,47.6167,16.8667,Hungary,HU,Győr-Moson-Sopron,,3360,3360
Tóalmás,47.5167,19.6667,Hungary,HU,Pest,,3344,3344
Nyírpazony,47.9833,21.8000,Hungary,HU,Szabolcs-Szatmár-Bereg,,3338,3338
Csobánka,47.6425,18.9678,Hungary,HU,Pest,,3335,3335
Sóskút,47.4063,18.8285,Hungary,HU,Pest,,3329,3329
Tápiógyörgye,47.3333,19.9500,Hungary,HU,Pest,,3326,3326
Vép,47.2275,16.7193,Hungary,HU,Vas,,3322,3322
Vaskút,46.1133,18.9867,Hungary,HU,Bács-Kiskun,,3313,3313
Kétegyháza,46.5333,21.1833,Hungary,HU,Békés,,3303,3303
Bordány,46.3167,19.9167,Hungary,HU,Csongrád,,3290,3290
Nagybajom,46.3992,17.5079,Hungary,HU,Somogy,,3288,3288
Zsombó,46.3333,19.9833,Hungary,HU,Csongrád,,3281,3281
Győrszemere,47.5517,17.5633,Hungary,HU,Győr-Moson-Sopron,,3279,3279
Besenyszög,47.3000,20.2667,Hungary,HU,Jász-Nagykun-Szolnok,,3279,3279
Akasztó,46.6897,19.2011,Hungary,HU,Bács-Kiskun,,3259,3259
Ráckeresztúr,47.2738,18.8348,Hungary,HU,Fejér,,3251,3251
Csepreg,47.4014,16.7081,Hungary,HU,Vas,,3241,3241
Harta,46.6945,19.0274,Hungary,HU,Bács-Kiskun,,3239,3239
Lébénymiklós,47.7360,17.3904,Hungary,HU,Győr-Moson-Sopron,,3232,3232
Táborfalva,47.0833,19.4667,Hungary,HU,Pest,,3216,3216
Erdőtelek,47.6830,20.3170,Hungary,HU,Heves,,3212,3212
Öcsöd,46.8997,20.3916,Hungary,HU,Jász-Nagykun-Szolnok,,3203,3203
Sárosd,47.0415,18.6489,Hungary,HU,Fejér,,3199,3199
Jászalsószentgyörgy,47.3667,20.1000,Hungary,HU,Jász-Nagykun-Szolnok,,3190,3190
Röszke,46.1833,20.0500,Hungary,HU,Csongrád,,3169,3169
Győrzámoly,47.7419,17.5787,Hungary,HU,Győr-Moson-Sopron,,3154,3154
Nagyréde,47.7670,19.8524,Hungary,HU,Heves,,3154,3154
Bököny,47.7333,21.7500,Hungary,HU,Szabolcs-Szatmár-Bereg,,3118,3118
Halászi,47.8897,17.3250,Hungary,HU,Győr-Moson-Sopron,,3118,3118
Abda,47.6951,17.5419,Hungary,HU,Győr-Moson-Sopron,,3117,3117
Sajókaza,48.2833,20.5828,Hungary,HU,Borsod-Abaúj-Zemplén,,3116,3116
Csolnok,47.6935,18.7130,Hungary,HU,Komárom-Esztergom,,3111,3111
Nyírbogát,47.8017,22.0606,Hungary,HU,Szabolcs-Szatmár-Bereg,,3105,3105
Dunabogdány,47.7944,19.0294,Hungary,HU,Pest,,3103,3103
Ecséd,47.7310,19.7690,Hungary,HU,Heves,,3094,3094
Múcsony,48.2687,20.6819,Hungary,HU,Borsod-Abaúj-Zemplén,,3081,3081
Borsodnádasd,48.1231,20.2428,Hungary,HU,Borsod-Abaúj-Zemplén,,3079,3079
Abaújszántó,48.2783,21.1875,Hungary,HU,Borsod-Abaúj-Zemplén,,3062,3062
Pákozd,47.2211,18.5449,Hungary,HU,Fejér,,3057,3057
Gönyů,47.7333,17.8333,Hungary,HU,Győr-Moson-Sopron,,3049,3049
Kakucs,47.2500,19.3667,Hungary,HU,Pest,,3049,3049
Csabrendek,47.0137,17.2932,Hungary,HU,Veszprém,,3048,3048
Hajdúszovát,47.3927,21.4786,Hungary,HU,Hajdú-Bihar,,3045,3045
Hévizgyörk,47.6316,19.5200,Hungary,HU,Pest,,3036,3036
Gomba,47.3707,19.5303,Hungary,HU,Pest,,3029,3029
Zalalövő,46.8464,16.5853,Hungary,HU,Zala,,3027,3027
Öttevény,47.7255,17.4891,Hungary,HU,Győr-Moson-Sopron,,3022,3022
Dunapataj,46.6430,18.9960,Hungary,HU,Bács-Kiskun,,3012,3012
Cigánd,48.2631,21.8917,Hungary,HU,Borsod-Abaúj-Zemplén,minor,3009,3009
Ópályi,48.0000,22.3167,Hungary,HU,Szabolcs-Szatmár-Bereg,,3004,3004
Lengyeltóti,46.6683,17.6361,Hungary,HU,Somogy,,3003,3003
Vértesszőlős,47.6188,18.3803,Hungary,HU,Komárom-Esztergom,,2986,2986
Nagymágocs,46.5833,20.5000,Hungary,HU,Csongrád,,2985,2985
Üllés,46.3333,19.8500,Hungary,HU,Csongrád,,2981,2981
Lepsény,46.9931,18.2456,Hungary,HU,Fejér,,2975,2975
Sárszentmihály,47.1555,18.3232,Hungary,HU,Fejér,,2973,2973
Földeák,46.3167,20.5000,Hungary,HU,Csongrád,,2967,2967
Balatonszabadi,46.8930,18.1366,Hungary,HU,Somogy,,2965,2965
Sárrétudvari,47.2333,21.2000,Hungary,HU,Hajdú-Bihar,,2963,2963
Zalakomár,46.5366,17.1812,Hungary,HU,Zala,,2960,2960
Bakonycsernye,47.3193,18.0870,Hungary,HU,Fejér,,2952,2952
Levelek,47.9667,21.9853,Hungary,HU,Szabolcs-Szatmár-Bereg,,2950,2950
Nyírbéltek,47.6978,22.1275,Hungary,HU,Szabolcs-Szatmár-Bereg,,2949,2949
Nagyigmánd,47.6325,18.0557,Hungary,HU,Komárom-Esztergom,,2938,2938
Pilisszántó,47.6667,18.9000,Hungary,HU,Pest,,2937,2937
Boldog,47.6031,19.6881,Hungary,HU,Heves,,2937,2937
Bélapátfalva,48.0500,20.3667,Hungary,HU,Heves,minor,2935,2935
Sásd,46.2544,18.1058,Hungary,HU,Baranya,minor,2934,2934
Cserszegtomaj,46.7928,17.2149,Hungary,HU,Zala,,2929,2929
Tiszabura,47.4500,20.4667,Hungary,HU,Jász-Nagykun-Szolnok,,2929,2929
Pátroha,48.1667,22.0000,Hungary,HU,Szabolcs-Szatmár-Bereg,,2927,2927
Poroszló,47.6470,20.6520,Hungary,HU,Heves,,2920,2920
Kisköre,47.5000,20.5000,Hungary,HU,Heves,,2911,2911
Karácsond,47.7300,20.0270,Hungary,HU,Heves,,2911,2911
Tiszadob,48.0044,21.1711,Hungary,HU,Szabolcs-Szatmár-Bereg,,2881,2881
Kocsord,47.9500,22.3833,Hungary,HU,Szabolcs-Szatmár-Bereg,,2878,2878
Tarcal,48.1313,21.3427,Hungary,HU,Borsod-Abaúj-Zemplén,,2866,2866
Hőgyész,46.4966,18.4178,Hungary,HU,Tolna,,2858,2858
Hajmáskér,47.1478,18.0222,Hungary,HU,Veszprém,,2854,2854
Hajós,46.3989,19.1200,Hungary,HU,Bács-Kiskun,,2844,2844
Nyírbogdány,48.0500,21.8833,Hungary,HU,Szabolcs-Szatmár-Bereg,,2840,2840
Gyöngyössolymos,47.8140,19.9330,Hungary,HU,Heves,,2833,2833
Biharnagybajom,47.2167,21.2333,Hungary,HU,Hajdú-Bihar,,2824,2824
Harka,47.6333,16.6000,Hungary,HU,Győr-Moson-Sopron,,2818,2818
Dánszentmiklós,47.2143,19.5434,Hungary,HU,Pest,,2818,2818
Sajólád,48.0436,20.9030,Hungary,HU,Borsod-Abaúj-Zemplén,,2811,2811
Iváncsa,47.1540,18.8269,Hungary,HU,Fejér,,2806,2806
Jászjákóhalma,47.5167,20.0000,Hungary,HU,Jász-Nagykun-Szolnok,,2799,2799
Csanádpalota,46.2500,20.7333,Hungary,HU,Csongrád,,2794,2794
Tápiószőlős,47.2855,19.8536,Hungary,HU,Pest,,2792,2792
Gesztely,48.1057,20.9630,Hungary,HU,Borsod-Abaúj-Zemplén,,2790,2790
Sajóbábony,48.1742,20.7373,Hungary,HU,Borsod-Abaúj-Zemplén,,2786,2786
Baj,47.6495,18.3615,Hungary,HU,Komárom-Esztergom,,2779,2779
Tornyospálca,48.2667,22.1833,Hungary,HU,Szabolcs-Szatmár-Bereg,,2770,2770
Diósjenő,47.9425,19.0442,Hungary,HU,Nógrád,,2768,2768
Érsekcsanád,46.2500,18.9833,Hungary,HU,Bács-Kiskun,,2765,2765
Dusnok,46.3830,18.9660,Hungary,HU,Bács-Kiskun,,2754,2754
Bölcske,46.7333,18.9667,Hungary,HU,Tolna,,2754,2754
Szalkszentmárton,46.9667,19.0167,Hungary,HU,Bács-Kiskun,,2752,2752
Porcsalma,47.8825,22.5683,Hungary,HU,Szabolcs-Szatmár-Bereg,,2743,2743
Szakoly,47.7667,21.9167,Hungary,HU,Szabolcs-Szatmár-Bereg,,2743,2743
Újhartyán,47.2192,19.3908,Hungary,HU,Pest,,2734,2734
Zákányszék,46.2667,19.9167,Hungary,HU,Csongrád,,2720,2720
Nagyhegyes,47.5398,21.3445,Hungary,HU,Hajdú-Bihar,,2714,2714
Szentgál,47.1138,17.7341,Hungary,HU,Veszprém,,2713,2713
Nyírmeggyes,47.9133,22.2639,Hungary,HU,Szabolcs-Szatmár-Bereg,,2712,2712
Gencsapáti,47.2847,16.5956,Hungary,HU,Vas,,2711,2711
Megyaszó,48.1859,21.0494,Hungary,HU,Borsod-Abaúj-Zemplén,,2711,2711
Bőcs,48.0432,20.9643,Hungary,HU,Borsod-Abaúj-Zemplén,,2710,2710
Rétság,47.9278,19.1372,Hungary,HU,Nógrád,minor,2705,2705
Tass,47.0190,19.0290,Hungary,HU,Bács-Kiskun,,2704,2704
Nyírlugos,47.6936,22.0389,Hungary,HU,Szabolcs-Szatmár-Bereg,,2699,2699
Herceghalom,47.5000,18.7500,Hungary,HU,Pest,,2694,2694
Nemesvámos,47.0537,17.8721,Hungary,HU,Veszprém,,2693,2693
Sárisáp,47.6747,18.6810,Hungary,HU,Komárom-Esztergom,,2674,2674
Recsk,47.9340,20.1110,Hungary,HU,Heves,,2673,2673
Baracska,47.2874,18.7570,Hungary,HU,Fejér,,2670,2670
Iregszemcse,46.6977,18.1806,Hungary,HU,Tolna,,2656,2656
Kunágota,46.4333,21.0500,Hungary,HU,Békés,,2650,2650
Adács,47.6911,19.9747,Hungary,HU,Heves,,2642,2642
Madaras,46.0587,19.2612,Hungary,HU,Bács-Kiskun,,2642,2642
Pocsaj,47.2833,21.8167,Hungary,HU,Hajdú-Bihar,,2642,2642
Beled,47.4661,17.0968,Hungary,HU,Győr-Moson-Sopron,,2640,2640
Kóny,47.6298,17.3628,Hungary,HU,Győr-Moson-Sopron,,2640,2640
Báránd,47.2930,21.2280,Hungary,HU,Hajdú-Bihar,,2631,2631
Tápióság,47.4035,19.6231,Hungary,HU,Pest,,2629,2629
Répcelak,47.4192,17.0167,Hungary,HU,Vas,,2625,2625
Jászkarajenő,47.0506,20.0706,Hungary,HU,Pest,,2613,2613
Tiszakeszi,47.7292,20.9428,Hungary,HU,Borsod-Abaúj-Zemplén,,2609,2609
Rajka,47.9969,17.1983,Hungary,HU,Győr-Moson-Sopron,,2607,2607
Andornaktálya,47.8446,20.4118,Hungary,HU,Heves,,2604,2604
Karancslapujtő,48.1538,19.7317,Hungary,HU,Nógrád,,2599,2599
Ják,47.1393,16.5824,Hungary,HU,Vas,,2598,2598
Cece,46.7715,18.6346,Hungary,HU,Fejér,,2589,2589
Besenyőtelek,47.7000,20.4320,Hungary,HU,Heves,,2588,2588
Petőfibánya,47.7658,19.7019,Hungary,HU,Heves,,2584,2584
Lovasberény,47.3139,18.5469,Hungary,HU,Fejér,,2583,2583
Bugac,46.6833,19.6833,Hungary,HU,Bács-Kiskun,,2579,2579
Ostoros,47.8670,20.4290,Hungary,HU,Heves,,2577,2577
Nagydorog,46.6225,18.6594,Hungary,HU,Tolna,,2576,2576
Balatonkenese,47.0346,18.1092,Hungary,HU,Veszprém,,2576,2576
Tiszaeszlár,48.0500,21.4667,Hungary,HU,Szabolcs-Szatmár-Bereg,,2575,2575
Berzence,46.2119,17.1510,Hungary,HU,Somogy,,2574,2574
Szob,47.8178,18.8667,Hungary,HU,Pest,minor,2566,2566
Táplánszentkereszt,47.1973,16.6997,Hungary,HU,Vas,,2565,2565
Tarján,47.6106,18.5108,Hungary,HU,Komárom-Esztergom,,2565,2565
Okány,46.9000,21.3500,Hungary,HU,Békés,,2563,2563
Jakabszállás,46.7617,19.6011,Hungary,HU,Bács-Kiskun,,2563,2563
Dunaszentgyörgy,46.5333,18.8333,Hungary,HU,Tolna,,2562,2562
Újszilvás,47.2782,19.9239,Hungary,HU,Pest,,2561,2561
Sárkeresztúr,47.0024,18.5477,Hungary,HU,Fejér,,2555,2555
Ófehértó,47.9368,22.0360,Hungary,HU,Szabolcs-Szatmár-Bereg,,2551,2551
Úri,47.4164,19.5178,Hungary,HU,Pest,,2545,2545
Bagamér,47.4500,22.0000,Hungary,HU,Hajdú-Bihar,,2540,2540
Abasár,47.8024,20.0075,Hungary,HU,Heves,,2538,2538
Galgahéviz,47.6224,19.5515,Hungary,HU,Pest,,2533,2533
Csanádapáca,46.5500,20.8833,Hungary,HU,Békés,,2527,2527
Kesztölc,47.7136,18.7952,Hungary,HU,Komárom-Esztergom,,2526,2526
Szigetmonostor,47.6833,19.1167,Hungary,HU,Pest,,2519,2519
Kocs,47.6067,18.2154,Hungary,HU,Komárom-Esztergom,,2519,2519
Gyöngyöshalász,47.7420,19.9220,Hungary,HU,Heves,,2503,2503
Rudabánya,48.3750,20.6209,Hungary,HU,Borsod-Abaúj-Zemplén,,2502,2502
Segesd,46.3434,17.3475,Hungary,HU,Somogy,,2502,2502
Rábapatona,47.6333,17.4833,Hungary,HU,Győr-Moson-Sopron,,2500,2500
Csanytelek,46.6062,20.1048,Hungary,HU,Csongrád,,2498,2498
Prügy,48.0817,21.2431,Hungary,HU,Borsod-Abaúj-Zemplén,,2492,2492
Forró,48.3242,21.0881,Hungary,HU,Borsod-Abaúj-Zemplén,,2489,2489
Jánosháza,47.1222,17.1641,Hungary,HU,Vas,,2489,2489
Bekecs,48.1514,21.1710,Hungary,HU,Borsod-Abaúj-Zemplén,,2485,2485
Sellye,45.8719,17.8456,Hungary,HU,Baranya,minor,2479,2479
Gyöngyöspata,47.8139,19.7894,Hungary,HU,Heves,,2476,2476
Tiszanána,47.5610,20.5230,Hungary,HU,Heves,,2474,2474
Kisláng,46.9612,18.3843,Hungary,HU,Fejér,,2472,2472
Jászszentlászló,46.5667,19.7667,Hungary,HU,Bács-Kiskun,,2467,2467
Bácsbokod,46.1244,19.1583,Hungary,HU,Bács-Kiskun,,2459,2459
Apc,47.7961,19.6898,Hungary,HU,Heves,,2453,2453
Mezőzombor,48.1527,21.2587,Hungary,HU,Borsod-Abaúj-Zemplén,,2447,2447
Mány,47.5328,18.6546,Hungary,HU,Fejér,,2440,2440
Kadarkút,46.2316,17.6194,Hungary,HU,Somogy,,2435,2435
Kaposmérő,46.3601,17.7024,Hungary,HU,Somogy,,2433,2433
Tiszakarád,48.2057,21.7281,Hungary,HU,Borsod-Abaúj-Zemplén,,2432,2432
Kelebia,46.2000,19.6167,Hungary,HU,Bács-Kiskun,,2432,2432
Úrhida,47.1306,18.3319,Hungary,HU,Fejér,,2431,2431
Tunyogmatolcs,47.9713,22.4555,Hungary,HU,Szabolcs-Szatmár-Bereg,,2430,2430
Valkó,47.5665,19.4920,Hungary,HU,Pest,,2429,2429
Szentistván,47.7730,20.6575,Hungary,HU,Borsod-Abaúj-Zemplén,,2429,2429
Szabadkígyós,46.6167,21.1000,Hungary,HU,Békés,,2426,2426
Zamárdi,46.8843,17.9505,Hungary,HU,Somogy,,2424,2424
Pusztavám,47.4328,18.2327,Hungary,HU,Fejér,,2421,2421
Fényeslitke,48.2667,22.1000,Hungary,HU,Szabolcs-Szatmár-Bereg,,2407,2407
Ruzsa,46.2833,19.7500,Hungary,HU,Csongrád,,2401,2401
Jászszentandrás,47.5833,20.1833,Hungary,HU,Jász-Nagykun-Szolnok,,2399,2399
Kosd,47.8046,19.1773,Hungary,HU,Pest,,2386,2386
Vál,47.3637,18.6753,Hungary,HU,Fejér,,2385,2385
Békéssámson,46.4167,20.6333,Hungary,HU,Békés,,2381,2381
Lánycsók,46.0000,18.6333,Hungary,HU,Baranya,,2380,2380
Pér,47.6131,17.8011,Hungary,HU,Győr-Moson-Sopron,,2373,2373
Nyírkarász,48.0964,22.1007,Hungary,HU,Szabolcs-Szatmár-Bereg,,2373,2373
Gyöngyöstarján,47.8000,19.8667,Hungary,HU,Heves,,2372,2372
Kisszállás,46.2798,19.4913,Hungary,HU,Bács-Kiskun,,2372,2372
Péteri,47.3833,19.4167,Hungary,HU,Pest,,2371,2371
Jánoshida,47.3833,20.0667,Hungary,HU,Jász-Nagykun-Szolnok,,2370,2370
Káloz,46.9573,18.4847,Hungary,HU,Fejér,,2370,2370
Görbeháza,47.8333,21.2333,Hungary,HU,Hajdú-Bihar,,2366,2366
Zsámbok,47.5428,19.6071,Hungary,HU,Pest,,2361,2361
Maklár,47.8100,20.4100,Hungary,HU,Heves,,2361,2361
Boldva,48.2172,20.7885,Hungary,HU,Borsod-Abaúj-Zemplén,,2360,2360
Őcsény,46.3126,18.7579,Hungary,HU,Tolna,,2359,2359
Ónod,47.9997,20.9143,Hungary,HU,Borsod-Abaúj-Zemplén,,2340,2340
Szigetcsép,47.2667,18.9833,Hungary,HU,Pest,,2338,2338
Piliscsév,47.6771,18.8149,Hungary,HU,Komárom-Esztergom,,2338,2338
Nyárlőrinc,46.8592,19.8791,Hungary,HU,Bács-Kiskun,,2332,2332
Tarpa,48.1039,22.5272,Hungary,HU,Szabolcs-Szatmár-Bereg,,2322,2322
Szank,46.5540,19.6670,Hungary,HU,Bács-Kiskun,,2317,2317
Köröstarcsa,46.8833,21.0333,Hungary,HU,Békés,,2316,2316
Apagy,47.9573,21.9363,Hungary,HU,Szabolcs-Szatmár-Bereg,,2309,2309
Kerecsend,47.7960,20.3430,Hungary,HU,Heves,,2307,2307
Beremend,45.7838,18.4323,Hungary,HU,Baranya,,2306,2306
Naszály,47.6987,18.2608,Hungary,HU,Komárom-Esztergom,,2297,2297
Verőcemaros,47.8377,19.0047,Hungary,HU,Pest,,2294,2294
Magyarbánhegyes,46.4500,20.9667,Hungary,HU,Békés,,2294,2294
Pócsmegyer,47.7167,19.1000,Hungary,HU,Pest,,2289,2289
Döge,48.2667,22.0833,Hungary,HU,Szabolcs-Szatmár-Bereg,,2288,2288
Buj,48.0964,21.6475,Hungary,HU,Szabolcs-Szatmár-Bereg,,2287,2287
Töltéstava,47.6167,17.7333,Hungary,HU,Győr-Moson-Sopron,,2286,2286
Kimle,47.8216,17.3691,Hungary,HU,Győr-Moson-Sopron,,2285,2285
Villány,45.8694,18.4556,Hungary,HU,Baranya,,2282,2282
Kéthely,46.6461,17.3940,Hungary,HU,Somogy,,2282,2282
Előszállás,46.8250,18.8266,Hungary,HU,Fejér,,2276,2276
Nagymányok,46.2800,18.4564,Hungary,HU,Tolna,,2275,2275
Gara,46.0340,19.0400,Hungary,HU,Bács-Kiskun,,2273,2273
Nagybaracska,46.0500,18.9000,Hungary,HU,Bács-Kiskun,,2271,2271
Böhönye,46.4119,17.3929,Hungary,HU,Somogy,,2261,2261
Fertőrákos,47.7167,16.6500,Hungary,HU,Győr-Moson-Sopron,,2260,2260
Nyírmihálydi,47.7326,21.9612,Hungary,HU,Szabolcs-Szatmár-Bereg,,2255,2255
Cserkeszőlő,46.8667,20.1833,Hungary,HU,Jász-Nagykun-Szolnok,,2249,2249
Szigetszentmárton,47.2333,18.9667,Hungary,HU,Pest,,2247,2247
Tiszadada,48.0333,21.2500,Hungary,HU,Szabolcs-Szatmár-Bereg,,2247,2247
Pellérd,46.0333,18.1500,Hungary,HU,Baranya,,2245,2245
Forráskút,46.3667,19.9167,Hungary,HU,Csongrád,,2234,2234
Lajoskomárom,46.8421,18.3393,Hungary,HU,Fejér,,2226,2226
Szászvár,46.2667,18.3667,Hungary,HU,Baranya,,2225,2225
Sáránd,47.4000,21.6333,Hungary,HU,Hajdú-Bihar,,2225,2225
Nagydobos,48.0500,22.3167,Hungary,HU,Szabolcs-Szatmár-Bereg,,2222,2222
Szedres,46.4789,18.6849,Hungary,HU,Tolna,,2220,2220
Mád,48.1898,21.2710,Hungary,HU,Borsod-Abaúj-Zemplén,,2217,2217
Öskü,47.1608,18.0720,Hungary,HU,Veszprém,,2211,2211
Pincehely,46.6839,18.4387,Hungary,HU,Tolna,,2211,2211
Tengelic,46.5289,18.7093,Hungary,HU,Tolna,,2207,2207
Császártöltés,46.4220,19.1790,Hungary,HU,Bács-Kiskun,,2203,2203
Nyírcsaholy,47.9032,22.3359,Hungary,HU,Szabolcs-Szatmár-Bereg,,2198,2198
Balatonföldvár,46.8547,17.8880,Hungary,HU,Somogy,,2195,2195
Mágocs,46.3474,18.2343,Hungary,HU,Baranya,,2191,2191
Dég,46.8708,18.4422,Hungary,HU,Fejér,,2184,2184
Konyár,47.3167,21.6667,Hungary,HU,Hajdú-Bihar,,2183,2183
Buják,47.8833,19.5500,Hungary,HU,Nógrád,,2183,2183
Sajószöged,47.9459,20.9955,Hungary,HU,Borsod-Abaúj-Zemplén,,2182,2182
Bucsa,47.2050,20.9970,Hungary,HU,Békés,,2179,2179
Ópusztaszer,46.4833,20.0833,Hungary,HU,Csongrád,,2178,2178
Kántorjánosi,47.9333,22.1500,Hungary,HU,Szabolcs-Szatmár-Bereg,,2173,2173
Vonyarcvashegy,46.7619,17.3162,Hungary,HU,Zala,,2172,2172
Litér,47.0994,18.0065,Hungary,HU,Veszprém,,2168,2168
Pázmánd,47.2874,18.6543,Hungary,HU,Fejér,,2157,2157
Máriapócs,47.8789,22.0189,Hungary,HU,Szabolcs-Szatmár-Bereg,,2153,2153
Mérk,47.7811,22.3797,Hungary,HU,Szabolcs-Szatmár-Bereg,,2153,2153
Bogyiszló,46.3858,18.8312,Hungary,HU,Tolna,,2152,2152
Bőny,47.6500,17.8667,Hungary,HU,Győr-Moson-Sopron,,2151,2151
Badacsonytomaj,46.8092,17.5136,Hungary,HU,Veszprém,,2150,2150
Ágfalva,47.6890,16.5169,Hungary,HU,Győr-Moson-Sopron,,2147,2147
Zámoly,47.3177,18.4076,Hungary,HU,Fejér,,2145,2145
Monostorpályi,47.4000,21.7833,Hungary,HU,Hajdú-Bihar,,2136,2136
Nagyrábé,47.2000,21.3333,Hungary,HU,Hajdú-Bihar,,2136,2136
Pilisszentkereszt,47.7000,18.9000,Hungary,HU,Pest,,2127,2127
Mocsa,47.6712,18.1847,Hungary,HU,Komárom-Esztergom,,2126,2126
Ádánd,46.8573,18.1534,Hungary,HU,Somogy,,2125,2125
Sajóvámos,48.1816,20.8316,Hungary,HU,Borsod-Abaúj-Zemplén,,2122,2122
Nagyoroszi,48.0034,19.0906,Hungary,HU,Nógrád,,2118,2118
Csány,47.6450,19.8250,Hungary,HU,Heves,,2118,2118
Tiszabő,47.3000,20.4833,Hungary,HU,Jász-Nagykun-Szolnok,,2117,2117
Domony,47.6531,19.4381,Hungary,HU,Pest,,2108,2108
Fülöpszállás,46.8210,19.2350,Hungary,HU,Bács-Kiskun,,2103,2103
Mezőszilas,46.8177,18.4744,Hungary,HU,Fejér,,2101,2101
Jászdózsa,47.5667,20.0167,Hungary,HU,Jász-Nagykun-Szolnok,,2095,2095
Jobbágyi,47.8293,19.6821,Hungary,HU,Nógrád,,2087,2087
Méhkerék,46.7833,21.4500,Hungary,HU,Békés,,2085,2085
Szabadegyháza,47.0784,18.6923,Hungary,HU,Fejér,,2085,2085
Kistokaj,48.0420,20.8395,Hungary,HU,Borsod-Abaúj-Zemplén,,2084,2084
Tordas,47.3437,18.7476,Hungary,HU,Fejér,,2083,2083
Kópháza,47.6382,16.6428,Hungary,HU,Győr-Moson-Sopron,,2081,2081
Koroncó,47.6007,17.5293,Hungary,HU,Győr-Moson-Sopron,,2074,2074
Becsehely,46.4460,16.7871,Hungary,HU,Zala,,2069,2069
Bokod,47.4926,18.2481,Hungary,HU,Komárom-Esztergom,,2064,2064
Iklad,47.6581,19.4511,Hungary,HU,Pest,,2061,2061
Szendrőlád,48.3405,20.7458,Hungary,HU,Borsod-Abaúj-Zemplén,,2059,2059
Kunfehértó,46.3589,19.4161,Hungary,HU,Bács-Kiskun,,2058,2058
Perbál,47.5913,18.7599,Hungary,HU,Pest,,2056,2056
Kevermes,46.4167,21.1833,Hungary,HU,Békés,,2049,2049
Gyönk,46.5556,18.4777,Hungary,HU,Tolna,,2048,2048
Almásfüzitő,47.7287,18.2554,Hungary,HU,Komárom-Esztergom,,2047,2047
Aranyosapáti,48.2000,22.2667,Hungary,HU,Szabolcs-Szatmár-Bereg,,2047,2047
Nyírgyulaj,47.8833,22.1000,Hungary,HU,Szabolcs-Szatmár-Bereg,,2047,2047
Csörögimajor,47.7314,19.2029,Hungary,HU,Pest,,2046,2046
Bősárkány,47.6884,17.2479,Hungary,HU,Győr-Moson-Sopron,,2046,2046
Parád,47.9167,20.0333,Hungary,HU,Heves,,2046,2046
Bercel,47.8707,19.4032,Hungary,HU,Nógrád,,2044,2044
Zomba,46.4117,18.5648,Hungary,HU,Tolna,,2042,2042
Romhány,47.9255,19.2582,Hungary,HU,Nógrád,,2040,2040
Dombegyház,46.3386,21.1311,Hungary,HU,Békés,,2039,2039
Maroslele,46.2670,20.3500,Hungary,HU,Csongrád,,2037,2037
Hidas,46.2564,18.4918,Hungary,HU,Baranya,,2035,2035
Nyírmártonfalva,47.5833,21.9000,Hungary,HU,Hajdú-Bihar,,2034,2034
Pétervására,48.0230,20.0990,Hungary,HU,Heves,minor,2031,2031
Tyukod,47.8522,22.5506,Hungary,HU,Szabolcs-Szatmár-Bereg,,2025,2025
Szany,47.4611,17.3011,Hungary,HU,Győr-Moson-Sopron,,2024,2024
Süttő,47.7567,18.4414,Hungary,HU,Komárom-Esztergom,,2023,2023
Nyírtass,48.1167,22.0333,Hungary,HU,Szabolcs-Szatmár-Bereg,,2021,2021
Tiszaszentimre,47.4833,20.7333,Hungary,HU,Jász-Nagykun-Szolnok,,2021,2021
Úrkút,47.0819,17.6446,Hungary,HU,Veszprém,,2017,2017
Harsány,47.9699,20.7405,Hungary,HU,Borsod-Abaúj-Zemplén,,2016,2016
Bátya,46.4833,18.9500,Hungary,HU,Bács-Kiskun,,2015,2015
Apostag,46.8808,18.9597,Hungary,HU,Bács-Kiskun,,2009,2009
Nyírkáta,47.8631,22.2458,Hungary,HU,Szabolcs-Szatmár-Bereg,,2009,2009
Szomód,47.6825,18.3418,Hungary,HU,Komárom-Esztergom,,2004,2004
Vácszentlászló,47.5731,19.5353,Hungary,HU,Pest,,2004,2004
Nagycenk,47.6000,16.7000,Hungary,HU,Győr-Moson-Sopron,,2003,2003
Dunaszeg,47.7684,17.5414,Hungary,HU,Győr-Moson-Sopron,,2000,2000
Tiszapüspöki,47.2167,20.3167,Hungary,HU,Jász-Nagykun-Szolnok,,1998,1998
Nagykozár,46.0645,18.3202,Hungary,HU,Baranya,,1995,1995
Baks,46.5500,20.1000,Hungary,HU,Csongrád,,1993,1993
Ősi,47.1420,18.1884,Hungary,HU,Veszprém,,1992,1992
Kecskéd,47.5231,18.3068,Hungary,HU,Komárom-Esztergom,,1990,1990
Hajdubagos,47.3927,21.6652,Hungary,HU,Hajdú-Bihar,,1989,1989
Zagyvaszántó,47.7730,19.6680,Hungary,HU,Heves,,1985,1985
Kompolt,47.7410,20.2530,Hungary,HU,Heves,,1981,1981
Egerszalók,47.8667,20.3333,Hungary,HU,Heves,,1981,1981
Székkutas,46.5000,20.5333,Hungary,HU,Csongrád,,1981,1981
Pilismarót,47.7840,18.8755,Hungary,HU,Komárom-Esztergom,,1975,1975
Rád,47.8000,19.2333,Hungary,HU,Pest,,1973,1973
Hercegszántó,45.9500,18.9333,Hungary,HU,Bács-Kiskun,,1970,1970
Fábiánsebestyén,46.6833,20.4667,Hungary,HU,Csongrád,,1970,1970
Gönc,48.4708,21.2742,Hungary,HU,Borsod-Abaúj-Zemplén,minor,1968,1968
Csengőd,46.7167,19.2667,Hungary,HU,Bács-Kiskun,,1968,1968
Vasad,47.3201,19.4087,Hungary,HU,Pest,,1967,1967
Szigetújfalu,47.2350,18.9231,Hungary,HU,Pest,,1965,1965
Nyírvasvári,47.8167,22.1833,Hungary,HU,Szabolcs-Szatmár-Bereg,,1964,1964
Bogács,47.9031,20.5319,Hungary,HU,Borsod-Abaúj-Zemplén,,1960,1960
Encsencs,47.7333,22.1167,Hungary,HU,Szabolcs-Szatmár-Bereg,,1958,1958
Domoszló,47.8310,20.1190,Hungary,HU,Heves,,1955,1955
Csengele,46.5333,19.8667,Hungary,HU,Csongrád,,1955,1955
Balatonszárszó,46.8295,17.8351,Hungary,HU,Somogy,,1947,1947
Szamosszeg,48.0500,22.3667,Hungary,HU,Szabolcs-Szatmár-Bereg,,1946,1946
Döbrököz,46.4167,18.2500,Hungary,HU,Tolna,,1946,1946
Anarcs,48.1833,22.1167,Hungary,HU,Szabolcs-Szatmár-Bereg,,1943,1943
Budajenő,47.5500,18.8000,Hungary,HU,Pest,,1942,1942
Iszkaszentgyörgy,47.2386,18.3014,Hungary,HU,Fejér,,1940,1940
Taktaszada,48.1102,21.1688,Hungary,HU,Borsod-Abaúj-Zemplén,,1939,1939
Gyulaháza,48.1396,22.1098,Hungary,HU,Szabolcs-Szatmár-Bereg,,1938,1938
Alattyán,47.4263,20.0409,Hungary,HU,Jász-Nagykun-Szolnok,,1937,1937
Zalakaros,46.5606,17.1228,Hungary,HU,Zala,,1936,1936
Kék,48.1167,21.8833,Hungary,HU,Szabolcs-Szatmár-Bereg,,1935,1935
Gégény,48.1500,21.9500,Hungary,HU,Szabolcs-Szatmár-Bereg,,1935,1935
Lábod,46.2014,17.4569,Hungary,HU,Somogy,,1935,1935
Dávod,46.0000,18.9167,Hungary,HU,Bács-Kiskun,,1935,1935
Mátraverebély,47.9793,19.7752,Hungary,HU,Nógrád,,1934,1934
Kaszaper,46.4667,20.8333,Hungary,HU,Békés,,1933,1933
Mátraderecske,47.9500,20.0860,Hungary,HU,Heves,,1926,1926
Vácrátót,47.7109,19.2353,Hungary,HU,Pest,,1924,1924
Berekböszörmény,47.0667,21.6833,Hungary,HU,Hajdú-Bihar,,1923,1923
Torony,47.2363,16.5371,Hungary,HU,Vas,,1920,1920
Csévharaszt,47.3000,19.4333,Hungary,HU,Pest,,1920,1920
Taszár,46.3762,17.9058,Hungary,HU,Somogy,,1915,1915
Pánd,47.3500,19.6333,Hungary,HU,Pest,,1912,1912
Csökmő,47.0333,21.3000,Hungary,HU,Hajdú-Bihar,,1912,1912
Rákócziújfalu,47.0598,20.2614,Hungary,HU,Jász-Nagykun-Szolnok,,1911,1911
Vámosgyörk,47.6850,19.9250,Hungary,HU,Heves,,1909,1909
Alap,46.8100,18.6805,Hungary,HU,Fejér,,1907,1907
Szurdokpüspöki,47.8520,19.6958,Hungary,HU,Nógrád,,1906,1906
Jászfelsőszentgyörgy,47.5000,19.8000,Hungary,HU,Jász-Nagykun-Szolnok,,1906,1906
Écs,47.5580,17.7053,Hungary,HU,Győr-Moson-Sopron,,1903,1903
Fehérvárcsurgó,47.2901,18.2687,Hungary,HU,Fejér,,1900,1900
Újszentiván,46.1833,20.1833,Hungary,HU,Csongrád,,1899,1899
Hejőbába,47.9093,20.9472,Hungary,HU,Borsod-Abaúj-Zemplén,,1899,1899
Kisléta,47.8333,22.0167,Hungary,HU,Szabolcs-Szatmár-Bereg,,1899,1899
Szihalom,47.7720,20.4830,Hungary,HU,Heves,,1899,1899
Farád,47.6055,17.2005,Hungary,HU,Győr-Moson-Sopron,,1895,1895
Nyirád,47.0034,17.4505,Hungary,HU,Veszprém,,1895,1895
Szentlőrinckáta,47.5167,19.7500,Hungary,HU,Pest,,1893,1893
Tállya,48.2347,21.2261,Hungary,HU,Borsod-Abaúj-Zemplén,,1892,1892
Noszvaj,47.9370,20.4750,Hungary,HU,Heves,,1891,1891
Madocsa,46.6880,18.9490,Hungary,HU,Tolna,,1891,1891
Tiszabezdéd,48.3667,22.1500,Hungary,HU,Szabolcs-Szatmár-Bereg,,1889,1889
Nyársapát,47.1012,19.8033,Hungary,HU,Pest,,1889,1889
Szokolya,47.8673,19.0079,Hungary,HU,Pest,,1889,1889
Rózsaszentmárton,47.7840,19.7410,Hungary,HU,Heves,,1883,1883
Kömlő,47.6010,20.4410,Hungary,HU,Heves,,1881,1881
Császár,47.5020,18.1421,Hungary,HU,Komárom-Esztergom,,1878,1878
Heréd,47.7090,19.6320,Hungary,HU,Heves,,1877,1877
Csetény,47.3177,17.9988,Hungary,HU,Veszprém,,1877,1877
Karancskeszi,48.1633,19.6996,Hungary,HU,Nógrád,,1877,1877
Mátraterenye,48.0328,19.9475,Hungary,HU,Nógrád,,1873,1873
Dunakiliti,47.9651,17.2885,Hungary,HU,Győr-Moson-Sopron,,1867,1867
Szentkirály,46.9178,19.9189,Hungary,HU,Bács-Kiskun,,1857,1857
Bajna,47.6521,18.5988,Hungary,HU,Komárom-Esztergom,,1856,1856
Járdánháza,48.1579,20.2513,Hungary,HU,Borsod-Abaúj-Zemplén,,1852,1852
Szentkirályszabadja,47.0572,17.9710,Hungary,HU,Veszprém,,1845,1845
Rimóc,48.0379,19.5298,Hungary,HU,Nógrád,,1844,1844
Aszaló,48.2212,20.9606,Hungary,HU,Borsod-Abaúj-Zemplén,,1843,1843
Kocsér,47.0000,19.9167,Hungary,HU,Pest,,1842,1842
Visegrád,47.7858,18.9702,Hungary,HU,Pest,,1841,1841
Kálmánháza,47.8833,21.5833,Hungary,HU,Szabolcs-Szatmár-Bereg,,1840,1840
Tar,47.9505,19.7413,Hungary,HU,Nógrád,,1839,1839
Kazár,48.0489,19.8514,Hungary,HU,Nógrád,,1839,1839
Ágasegyháza,46.8419,19.4475,Hungary,HU,Bács-Kiskun,,1837,1837
Piricse,47.7667,22.1500,Hungary,HU,Szabolcs-Szatmár-Bereg,,1834,1834
Balatonfenyves,46.7132,17.4801,Hungary,HU,Somogy,,1833,1833
Sármellék,46.7119,17.1693,Hungary,HU,Zala,,1828,1828
Ikrény,47.6530,17.5276,Hungary,HU,Győr-Moson-Sopron,,1826,1826
Soponya,47.0132,18.4555,Hungary,HU,Fejér,,1824,1824
Tarnaőrs,47.5980,20.0560,Hungary,HU,Heves,,1822,1822
Ököritófülpös,47.9181,22.5094,Hungary,HU,Szabolcs-Szatmár-Bereg,,1821,1821
Karcsa,48.3105,21.7973,Hungary,HU,Borsod-Abaúj-Zemplén,,1820,1820
Tiszabercel,48.1500,21.6500,Hungary,HU,Szabolcs-Szatmár-Bereg,,1819,1819
Leányvár,47.6827,18.7702,Hungary,HU,Komárom-Esztergom,,1818,1818
Tolcsva,48.2839,21.4462,Hungary,HU,Borsod-Abaúj-Zemplén,,1818,1818
Sirok,47.9311,20.1969,Hungary,HU,Heves,,1814,1814
Felcsút,47.4555,18.5848,Hungary,HU,Fejér,,1812,1812
Levél,47.8937,17.2005,Hungary,HU,Győr-Moson-Sopron,,1811,1811
Tatárszentgyörgy,47.0814,19.3697,Hungary,HU,Pest,,1811,1811
Bócsa,46.6000,19.5000,Hungary,HU,Bács-Kiskun,,1811,1811
Ságvár,46.8371,18.1020,Hungary,HU,Somogy,,1807,1807
Pap,48.2167,22.1500,Hungary,HU,Szabolcs-Szatmár-Bereg,,1805,1805
Tiszanagyfalu,48.0920,21.4720,Hungary,HU,Szabolcs-Szatmár-Bereg,,1804,1804
Kesznyéten,47.9670,21.0444,Hungary,HU,Borsod-Abaúj-Zemplén,,1800,1800
Halmaj,48.2463,20.9971,Hungary,HU,Borsod-Abaúj-Zemplén,,1799,1799
Galgamácsa,47.7000,19.3833,Hungary,HU,Pest,,1799,1799
Pálmonostora,46.6333,19.9500,Hungary,HU,Bács-Kiskun,,1798,1798
Dunaszekcső,46.0833,18.7667,Hungary,HU,Baranya,,1796,1796
Máriakálnok,47.8599,17.3217,Hungary,HU,Győr-Moson-Sopron,,1791,1791
Nagyszentjános,47.7104,17.8707,Hungary,HU,Győr-Moson-Sopron,,1791,1791
Tarnalelesz,48.0500,20.1830,Hungary,HU,Heves,,1785,1785
Csór,47.2039,18.2570,Hungary,HU,Fejér,,1785,1785
Ikervár,47.2093,16.8953,Hungary,HU,Vas,,1780,1780
Nagycserkesz,47.9667,21.5333,Hungary,HU,Szabolcs-Szatmár-Bereg,,1778,1778
Tázlár,46.5500,19.5167,Hungary,HU,Bács-Kiskun,,1776,1776
Nemesnádudvar,46.3333,19.0500,Hungary,HU,Bács-Kiskun,,1775,1775
Vértesacsa,47.3689,18.5789,Hungary,HU,Fejér,,1773,1773
Ricse,48.3258,21.9689,Hungary,HU,Borsod-Abaúj-Zemplén,,1769,1769
Váchartyán,47.7247,19.2596,Hungary,HU,Pest,,1767,1767
Csabacsůd,46.8330,20.6500,Hungary,HU,Békés,,1764,1764
Balatonszemes,46.8094,17.7711,Hungary,HU,Somogy,,1763,1763
Nyírtura,48.0167,21.8333,Hungary,HU,Szabolcs-Szatmár-Bereg,,1759,1759
Csopak,46.9783,17.9188,Hungary,HU,Veszprém,,1759,1759
Felsőszentiván,46.1950,19.1903,Hungary,HU,Bács-Kiskun,,1759,1759
Győrújfalu,47.7224,17.6084,Hungary,HU,Győr-Moson-Sopron,,1758,1758
Csákánydoroszló,46.9728,16.5044,Hungary,HU,Vas,,1757,1757
Somogyvár,46.5856,17.6501,Hungary,HU,Somogy,,1756,1756
Bakonyszentlászló,47.3875,17.8007,Hungary,HU,Győr-Moson-Sopron,,1753,1753
Sály,47.9481,20.6643,Hungary,HU,Borsod-Abaúj-Zemplén,,1752,1752
Nagyvázsony,46.9835,17.6941,Hungary,HU,Veszprém,,1751,1751
Fülöp,47.6000,22.0667,Hungary,HU,Hajdú-Bihar,,1748,1748
Fábiánháza,47.8462,22.3543,Hungary,HU,Szabolcs-Szatmár-Bereg,,1747,1747
Izsófalva,48.3098,20.6530,Hungary,HU,Borsod-Abaúj-Zemplén,,1746,1746
Jánkmajtis,47.9500,22.6500,Hungary,HU,Szabolcs-Szatmár-Bereg,,1736,1736
Enese,47.6457,17.4205,Hungary,HU,Győr-Moson-Sopron,,1734,1734
Petneháza,48.0667,22.0833,Hungary,HU,Szabolcs-Szatmár-Bereg,,1732,1732
Csávoly,46.1910,19.1470,Hungary,HU,Bács-Kiskun,,1731,1731
Besnyő,47.1891,18.7898,Hungary,HU,Fejér,,1729,1729
Tinnye,47.6167,18.7833,Hungary,HU,Pest,,1728,1728
Nádasdladány,47.1341,18.2357,Hungary,HU,Fejér,,1728,1728
Méra,48.3591,21.1523,Hungary,HU,Borsod-Abaúj-Zemplén,,1727,1727
Zsadány,46.9167,21.5000,Hungary,HU,Békés,,1726,1726
Tác,47.0793,18.4051,Hungary,HU,Fejér,,1723,1723
Németkér,46.7180,18.7650,Hungary,HU,Tolna,,1719,1719
Geszteréd,47.7667,21.7833,Hungary,HU,Szabolcs-Szatmár-Bereg,,1718,1718
Mosonszolnok,47.8500,17.1667,Hungary,HU,Győr-Moson-Sopron,,1715,1715
Ászár,47.5095,18.0031,Hungary,HU,Komárom-Esztergom,,1714,1714
Tiszasziget,46.1667,20.1667,Hungary,HU,Csongrád,,1714,1714
Vajszló,45.8633,17.9761,Hungary,HU,Baranya,,1709,1709
Tömörkény,46.6167,20.0333,Hungary,HU,Csongrád,,1706,1706
Újlengyel,47.2286,19.4522,Hungary,HU,Pest,,1703,1703
Bükkábrány,47.8884,20.6793,Hungary,HU,Borsod-Abaúj-Zemplén,,1697,1697
Katymár,46.0322,19.2108,Hungary,HU,Bács-Kiskun,,1697,1697
Vasmegyer,48.1167,21.8167,Hungary,HU,Szabolcs-Szatmár-Bereg,,1690,1690
Szabolcsveresmart,48.3000,22.0167,Hungary,HU,Szabolcs-Szatmár-Bereg,,1690,1690
Jászboldogháza,47.3667,20.0000,Hungary,HU,Jász-Nagykun-Szolnok,,1686,1686
Olaszliszka,48.2426,21.4302,Hungary,HU,Borsod-Abaúj-Zemplén,,1684,1684
Báta,46.1286,18.7703,Hungary,HU,Tolna,,1683,1683
Kisgyőr,48.0122,20.6893,Hungary,HU,Borsod-Abaúj-Zemplén,,1680,1680
Szederkény,46.0000,18.4500,Hungary,HU,Baranya,,1677,1677
Nógrádmegyer,48.0687,19.6240,Hungary,HU,Nógrád,,1676,1676
Pócspetri,47.8833,22.0000,Hungary,HU,Szabolcs-Szatmár-Bereg,,1674,1674
Mátranovák,48.0375,19.9839,Hungary,HU,Nógrád,,1673,1673
Érpatak,47.8000,21.7667,Hungary,HU,Szabolcs-Szatmár-Bereg,,1673,1673
Zalaapáti,46.7333,17.1167,Hungary,HU,Zala,,1671,1671
Győrladamér,47.7553,17.5622,Hungary,HU,Győr-Moson-Sopron,,1664,1664
Hernádkak,48.0925,20.9608,Hungary,HU,Borsod-Abaúj-Zemplén,,1664,1664
Lőkösháza,46.4333,21.2333,Hungary,HU,Békés,,1663,1663
Pátka,47.2763,18.4948,Hungary,HU,Fejér,,1662,1662
Pusztaföldvár,46.5333,20.8000,Hungary,HU,Békés,,1662,1662
Vámosszabadi,47.7566,17.6473,Hungary,HU,Győr-Moson-Sopron,,1659,1659
Tarnaméra,47.6560,20.1580,Hungary,HU,Heves,,1659,1659
Kakasd,46.3486,18.5910,Hungary,HU,Tolna,,1656,1656
Álmosd,47.4167,21.9833,Hungary,HU,Hajdú-Bihar,,1653,1653
Csomád,47.6667,19.2333,Hungary,HU,Pest,,1650,1650
Kunszállás,46.7667,19.7500,Hungary,HU,Bács-Kiskun,,1650,1650
Dudar,47.3072,17.9394,Hungary,HU,Veszprém,,1649,1649
Rábapaty,47.3000,16.9333,Hungary,HU,Vas,,1638,1638
Kaposfő,46.3586,17.6622,Hungary,HU,Somogy,,1637,1637
Murakeresztúr,46.3524,16.8777,Hungary,HU,Zala,,1635,1635
Szár,47.4775,18.5161,Hungary,HU,Fejér,,1635,1635
Felsőörs,47.0144,17.9522,Hungary,HU,Veszprém,,1631,1631
Alsóörs,46.9945,17.9736,Hungary,HU,Veszprém,,1631,1631
Monok,48.2102,21.1477,Hungary,HU,Borsod-Abaúj-Zemplén,,1631,1631
Ormosi Tanya,48.3364,20.6484,Hungary,HU,Borsod-Abaúj-Zemplén,,1630,1630
Pacsa,46.7205,17.0110,Hungary,HU,Zala,,1630,1630
Bana,47.6499,17.9212,Hungary,HU,Komárom-Esztergom,,1629,1629
Szomolya,47.8919,20.4964,Hungary,HU,Borsod-Abaúj-Zemplén,,1628,1628
Vámosmikola,47.9764,18.7833,Hungary,HU,Pest,,1626,1626
Fajsz,46.4180,18.9190,Hungary,HU,Bács-Kiskun,,1621,1621
Szilvásvárad,48.1040,20.3870,Hungary,HU,Heves,,1621,1621
Tardosbánya,47.6619,18.4442,Hungary,HU,Komárom-Esztergom,,1617,1617
Nagyfüged,47.6875,20.1063,Hungary,HU,Heves,,1615,1615
Mezőtárkány,47.7210,20.4760,Hungary,HU,Heves,,1612,1612
Kőtelek,47.3333,20.4500,Hungary,HU,Jász-Nagykun-Szolnok,,1611,1611
Ozora,46.7529,18.3985,Hungary,HU,Tolna,,1605,1605
Mezőnyárád,47.8471,20.6742,Hungary,HU,Borsod-Abaúj-Zemplén,,1603,1603
Varsány,48.0416,19.4889,Hungary,HU,Nógrád,,1603,1603
Dunasziget,47.9389,17.3513,Hungary,HU,Győr-Moson-Sopron,,1603,1603
Bajót,47.7272,18.5558,Hungary,HU,Komárom-Esztergom,,1602,1602
Hangony,48.2293,20.1975,Hungary,HU,Borsod-Abaúj-Zemplén,,1602,1602
Ladánybene,47.0333,19.4500,Hungary,HU,Bács-Kiskun,,1602,1602
Jásztelek,47.4821,20.0010,Hungary,HU,Jász-Nagykun-Szolnok,,1602,1602
Csépa,46.8000,20.1333,Hungary,HU,Jász-Nagykun-Szolnok,,1600,1600
Istenmezeje,48.0860,20.0550,Hungary,HU,Heves,,1600,1600
Győrtelek,47.9333,22.4333,Hungary,HU,Szabolcs-Szatmár-Bereg,,1599,1599
Szerep,47.2333,21.1500,Hungary,HU,Hajdú-Bihar,,1596,1596
Majosháza,47.2624,19.0015,Hungary,HU,Pest,,1594,1594
Miske,46.4333,19.0333,Hungary,HU,Bács-Kiskun,,1589,1589
Palotáshalom,47.7946,19.5986,Hungary,HU,Nógrád,,1588,1588
Somogyjád,46.4892,17.7119,Hungary,HU,Somogy,,1588,1588
Hegykő,47.6193,16.7941,Hungary,HU,Győr-Moson-Sopron,,1588,1588
Balatonszentgyörgy,46.6885,17.2953,Hungary,HU,Somogy,,1584,1584
Derekegyház,46.5833,20.3667,Hungary,HU,Csongrád,,1584,1584
Nagykörů,47.2764,20.4472,Hungary,HU,Jász-Nagykun-Szolnok,,1579,1579
Vácduka,47.7466,19.2099,Hungary,HU,Pest,,1578,1578
Tényő,47.5333,17.6500,Hungary,HU,Győr-Moson-Sopron,,1578,1578
Kurityán,48.3131,20.6238,Hungary,HU,Borsod-Abaúj-Zemplén,,1576,1576
Tiszakanyár,48.2500,21.9667,Hungary,HU,Szabolcs-Szatmár-Bereg,,1576,1576
Bak,46.7290,16.8444,Hungary,HU,Zala,,1572,1572
Szůcsi,47.8020,19.7620,Hungary,HU,Heves,,1569,1569
Somogyszob,46.2928,17.2958,Hungary,HU,Somogy,,1563,1563
Tiszajenő,47.0333,20.1500,Hungary,HU,Jász-Nagykun-Szolnok,,1562,1562
Szepetnek,46.4331,16.8979,Hungary,HU,Zala,,1562,1562
Pálfa,46.7120,18.6130,Hungary,HU,Tolna,,1561,1561
Karád,46.6919,17.8433,Hungary,HU,Somogy,,1561,1561
Csokonyavisonta,46.0810,17.4461,Hungary,HU,Somogy,,1561,1561
Gellénháza,46.7693,16.7862,Hungary,HU,Zala,,1558,1558
Mátraszőlős,47.9594,19.6889,Hungary,HU,Nógrád,,1555,1555
Tiszatenyő,47.1333,20.3833,Hungary,HU,Jász-Nagykun-Szolnok,,1554,1554
Zsáka,47.1333,21.4333,Hungary,HU,Hajdú-Bihar,,1554,1554
Szatmárcseke,48.0859,22.6310,Hungary,HU,Szabolcs-Szatmár-Bereg,,1553,1553
Csólyospálos,46.4178,19.8408,Hungary,HU,Bács-Kiskun,,1551,1551
Dunaalmás,47.7296,18.3217,Hungary,HU,Komárom-Esztergom,,1547,1547
Magyaralmás,47.2917,18.3234,Hungary,HU,Fejér,,1546,1546
Türje,46.9819,17.1053,Hungary,HU,Zala,,1546,1546
Gyöngyösoroszi,47.8260,19.8940,Hungary,HU,Heves,,1545,1545
Öreglak,46.6052,17.6251,Hungary,HU,Somogy,,1537,1537
Szendehely,47.8558,19.1030,Hungary,HU,Nógrád,,1535,1535
Pusztadobos,48.0667,22.2333,Hungary,HU,Szabolcs-Szatmár-Bereg,,1535,1535
Tiszaroff,47.4000,20.4500,Hungary,HU,Jász-Nagykun-Szolnok,,1535,1535
Nagylóc,48.0326,19.5759,Hungary,HU,Nógrád,,1532,1532
Tiszavárkony,47.0667,20.1833,Hungary,HU,Jász-Nagykun-Szolnok,,1529,1529
Karancsalja,48.1319,19.7561,Hungary,HU,Nógrád,,1527,1527
Dédestapolcsány,48.1803,20.4835,Hungary,HU,Borsod-Abaúj-Zemplén,,1526,1526
Sárkeresztes,47.2516,18.3531,Hungary,HU,Fejér,,1525,1525
Kékcse,48.2500,22.0000,Hungary,HU,Szabolcs-Szatmár-Bereg,,1524,1524
Darnózseli,47.8493,17.4267,Hungary,HU,Győr-Moson-Sopron,,1524,1524
Penc,47.8000,19.2500,Hungary,HU,Pest,,1522,1522
Foktő,46.5280,18.9230,Hungary,HU,Bács-Kiskun,,1521,1521
Ramocsaháza,48.0416,21.9880,Hungary,HU,Szabolcs-Szatmár-Bereg,,1517,1517
Kaposszekcső,46.3288,18.1289,Hungary,HU,Tolna,,1512,1512
Alsóvadász,48.2396,20.9039,Hungary,HU,Borsod-Abaúj-Zemplén,,1511,1511
Pusztamonostor,47.5500,19.8000,Hungary,HU,Jász-Nagykun-Szolnok,,1511,1511
Babócsa,46.0379,17.3445,Hungary,HU,Somogy,,1510,1510
Sarkadkeresztúr,46.8000,21.3833,Hungary,HU,Békés,,1509,1509
Legyesbénye,48.1620,21.1468,Hungary,HU,Borsod-Abaúj-Zemplén,,1504,1504
Balatonkeresztúr,46.6956,17.3715,Hungary,HU,Somogy,,1504,1504
Papkeszi,47.0806,18.0805,Hungary,HU,Veszprém,,1503,1503
Balotaszállás,46.3500,19.5333,Hungary,HU,Bács-Kiskun,,1499,1499
Drégelypalánk,48.0500,19.0500,Hungary,HU,Nógrád,,1496,1496
Görcsöny,45.9667,18.1333,Hungary,HU,Baranya,,1485,1485
Sajókeresztúr,48.1696,20.7761,Hungary,HU,Borsod-Abaúj-Zemplén,,1483,1483
Kölesd,46.5103,18.5904,Hungary,HU,Tolna,,1482,1482
Bükkaranyos,47.9859,20.7799,Hungary,HU,Borsod-Abaúj-Zemplén,,1478,1478
Vaszar,47.4032,17.5161,Hungary,HU,Veszprém,,1475,1475
Bátmonostor,46.1045,18.9296,Hungary,HU,Bács-Kiskun,,1473,1473
Újszentmargita,47.7333,21.1000,Hungary,HU,Hajdú-Bihar,,1473,1473
Hortobágy,47.5832,21.1517,Hungary,HU,Hajdú-Bihar,,1470,1470
Győrság,47.5756,17.7531,Hungary,HU,Győr-Moson-Sopron,,1465,1465
Kápolna,47.7591,20.2471,Hungary,HU,Heves,,1465,1465
Gyermely,47.5919,18.6418,Hungary,HU,Komárom-Esztergom,,1464,1464
Kötegyán,46.7333,21.4833,Hungary,HU,Békés,,1463,1463
Vilmány,48.4158,21.2312,Hungary,HU,Borsod-Abaúj-Zemplén,,1460,1460
Kutas,46.3347,17.4563,Hungary,HU,Somogy,,1458,1458
Kunadacs,46.9500,19.3167,Hungary,HU,Bács-Kiskun,,1458,1458
Nagyberki,46.3612,18.0076,Hungary,HU,Somogy,,1457,1457
Kálló,47.7513,19.4939,Hungary,HU,Nógrád,,1455,1455
Nagyvarsány,48.1667,22.2833,Hungary,HU,Szabolcs-Szatmár-Bereg,,1454,1454
Bakonyszombathely,47.4721,17.9602,Hungary,HU,Komárom-Esztergom,,1453,1453
Alcsútdoboz,47.4258,18.6026,Hungary,HU,Fejér,,1452,1452
Kincses,47.2645,18.2758,Hungary,HU,Fejér,,1451,1451
Söjtör,46.6727,16.8537,Hungary,HU,Zala,,1450,1450
Pereszteg,47.5927,16.7306,Hungary,HU,Győr-Moson-Sopron,,1449,1449
Szákszend,47.5571,18.1631,Hungary,HU,Komárom-Esztergom,,1447,1447
Tiszasüly,47.3880,20.3880,Hungary,HU,Jász-Nagykun-Szolnok,,1447,1447
Kőszárhegy,47.0907,18.3406,Hungary,HU,Fejér,,1446,1446
Kübekháza,46.1495,20.2763,Hungary,HU,Csongrád,,1446,1446
Nagysáp,47.6848,18.6016,Hungary,HU,Komárom-Esztergom,,1444,1444
Tárkány,47.5913,18.0037,Hungary,HU,Komárom-Esztergom,,1444,1444
Tiszapalkonya,47.8852,21.0552,Hungary,HU,Borsod-Abaúj-Zemplén,,1437,1437
Tiszatarján,47.8333,21.0002,Hungary,HU,Borsod-Abaúj-Zemplén,,1437,1437
Alsópáhok,46.7606,17.1735,Hungary,HU,Zala,,1427,1427
Őr,47.9833,22.2000,Hungary,HU,Szabolcs-Szatmár-Bereg,,1422,1422
Kunbaja,46.0850,19.4208,Hungary,HU,Bács-Kiskun,,1420,1420
Egerbakta,47.9350,20.2910,Hungary,HU,Heves,,1420,1420
Novajidrány,48.4031,21.1706,Hungary,HU,Borsod-Abaúj-Zemplén,,1419,1419
Tiszakürt,46.8833,20.1167,Hungary,HU,Jász-Nagykun-Szolnok,,1416,1416
Tetétlen,47.3161,21.3052,Hungary,HU,Hajdú-Bihar,,1416,1416
Kölcse,48.0506,22.7169,Hungary,HU,Szabolcs-Szatmár-Bereg,,1411,1411
Biri,47.8167,21.8500,Hungary,HU,Szabolcs-Szatmár-Bereg,,1407,1407
Dunaegyháza,46.8333,18.9500,Hungary,HU,Bács-Kiskun,,1406,1406
Lövő,47.5018,16.7852,Hungary,HU,Győr-Moson-Sopron,,1403,1403
Sukoró,47.2409,18.6010,Hungary,HU,Fejér,,1402,1402
Tiszatelek,48.2000,21.8000,Hungary,HU,Szabolcs-Szatmár-Bereg,,1400,1400
Nagyharsány,45.8469,18.3977,Hungary,HU,Baranya,,1399,1399
Petőfiszállás,46.6167,19.8333,Hungary,HU,Bács-Kiskun,,1399,1399
Csátalja,46.0360,18.9430,Hungary,HU,Bács-Kiskun,,1396,1396
Püspökhatvan,47.7667,19.3667,Hungary,HU,Pest,,1395,1395
Nógrád,47.9048,19.0516,Hungary,HU,Nógrád,,1395,1395
Pácin,48.3309,21.8309,Hungary,HU,Borsod-Abaúj-Zemplén,,1395,1395
Magyarcsanád,46.1670,20.6170,Hungary,HU,Csongrád,,1392,1392
Mesztegnyő,46.4982,17.4253,Hungary,HU,Somogy,,1391,1391
Acsa,47.7971,19.3815,Hungary,HU,Pest,,1390,1390
Végegyháza,46.3833,20.8667,Hungary,HU,Békés,,1390,1390
Ugod,47.3235,17.5994,Hungary,HU,Veszprém,,1389,1389
Sajópetri,48.0342,20.8895,Hungary,HU,Borsod-Abaúj-Zemplén,,1387,1387
Nagykamarás,46.4667,21.1167,Hungary,HU,Békés,,1383,1383
Sényő,48.0000,21.8833,Hungary,HU,Szabolcs-Szatmár-Bereg,,1381,1381
Tiszaörs,47.5167,20.8333,Hungary,HU,Jász-Nagykun-Szolnok,,1378,1378
Dejtár,48.0333,19.1667,Hungary,HU,Nógrád,,1377,1377
Nagykereki,47.1872,21.7877,Hungary,HU,Hajdú-Bihar,,1375,1375
Köröm,47.9825,20.9553,Hungary,HU,Borsod-Abaúj-Zemplén,,1374,1374
Kisapostag,46.8938,18.9317,Hungary,HU,Fejér,,1374,1374
Etes,48.1098,19.7188,Hungary,HU,Nógrád,,1374,1374
Bánhorváti,48.2253,20.5044,Hungary,HU,Borsod-Abaúj-Zemplén,,1373,1373
Tihany,46.9089,17.8792,Hungary,HU,Veszprém,,1369,1369
Pusztaszer,46.5500,19.9833,Hungary,HU,Csongrád,,1365,1365
Tibolddaróc,47.9213,20.6370,Hungary,HU,Borsod-Abaúj-Zemplén,,1362,1362
Pély,47.4940,20.3430,Hungary,HU,Heves,,1359,1359
Bodroghalom,48.3000,21.7052,Hungary,HU,Borsod-Abaúj-Zemplén,,1358,1358
Sárszentágota,46.9705,18.5616,Hungary,HU,Fejér,,1358,1358
Csókakő,47.3533,18.2731,Hungary,HU,Fejér,,1356,1356
Réde,47.4306,17.9186,Hungary,HU,Komárom-Esztergom,,1356,1356
Szakály,46.5244,18.3797,Hungary,HU,Tolna,,1352,1352
Pusztavacs,47.1714,19.5011,Hungary,HU,Pest,,1352,1352
Tevel,46.4115,18.4555,Hungary,HU,Tolna,,1351,1351
Szügy,48.0361,19.3209,Hungary,HU,Nógrád,,1349,1349
Vasszécseny,47.1828,16.7661,Hungary,HU,Vas,,1348,1348
Mernye,46.5090,17.8244,Hungary,HU,Somogy,,1348,1348
Buzsák,46.6431,17.5850,Hungary,HU,Somogy,,1347,1347
Látrány,46.7484,17.7462,Hungary,HU,Somogy,,1342,1342
Esztár,47.2833,21.7833,Hungary,HU,Hajdú-Bihar,,1335,1335
Novaj,47.8580,20.4780,Hungary,HU,Heves,,1332,1332
Bánréve,48.2984,20.3550,Hungary,HU,Borsod-Abaúj-Zemplén,,1331,1331
Pitvaras,46.3170,20.7330,Hungary,HU,Csongrád,,1331,1331
Kőröshegy,46.8333,17.9000,Hungary,HU,Somogy,,1330,1330
Tótvázsony,47.0091,17.7876,Hungary,HU,Veszprém,,1329,1329
Telekgerendás,46.6500,20.9667,Hungary,HU,Békés,,1324,1324
Sé,47.2429,16.5561,Hungary,HU,Vas,,1323,1323
Szeremle,46.1500,18.8833,Hungary,HU,Bács-Kiskun,,1322,1322
Verseg,47.7227,19.5506,Hungary,HU,Pest,,1321,1321
Egercsehi,48.0530,20.2610,Hungary,HU,Heves,,1320,1320
Szil,47.5014,17.2330,Hungary,HU,Győr-Moson-Sopron,,1319,1319
Tök,47.5667,18.7333,Hungary,HU,Pest,,1317,1317
Vizslás,48.0492,19.8202,Hungary,HU,Nógrád,,1316,1316
Vajdácska,48.3220,21.6540,Hungary,HU,Borsod-Abaúj-Zemplén,,1316,1316
Véménd,46.1500,18.6167,Hungary,HU,Baranya,,1315,1315
Fertőszéplak,47.6158,16.8380,Hungary,HU,Győr-Moson-Sopron,,1312,1312
Balatonendréd,46.8404,17.9781,Hungary,HU,Somogy,,1311,1311
Borota,46.2667,19.2333,Hungary,HU,Bács-Kiskun,,1309,1309
Nádasd,46.9667,16.6167,Hungary,HU,Vas,,1308,1308
Nagyberény,46.7978,18.1684,Hungary,HU,Somogy,,1305,1305
Igal,46.5389,17.9399,Hungary,HU,Somogy,,1305,1305
Vértessomló,47.5097,18.3670,Hungary,HU,Komárom-Esztergom,,1303,1303
Bezenye,47.9617,17.2156,Hungary,HU,Győr-Moson-Sopron,,1302,1302
Jármi,47.9667,22.2500,Hungary,HU,Szabolcs-Szatmár-Bereg,,1301,1301
Balatonfőkajár,47.0205,18.2108,Hungary,HU,Veszprém,,1300,1300
Városlőd,47.1437,17.6503,Hungary,HU,Veszprém,,1300,1300
Nagykarácsony,46.8667,18.7667,Hungary,HU,Fejér,,1300,1300
Somberek,46.0811,18.6623,Hungary,HU,Baranya,,1300,1300
Vitnyéd,47.5882,16.9858,Hungary,HU,Győr-Moson-Sopron,,1300,1300
Mártély,46.4833,20.2167,Hungary,HU,Csongrád,,1298,1298
Jenő,47.1095,18.2481,Hungary,HU,Fejér,,1293,1293
Sajóörös,47.9532,21.0198,Hungary,HU,Borsod-Abaúj-Zemplén,,1293,1293
Timár,48.1667,21.4667,Hungary,HU,Szabolcs-Szatmár-Bereg,,1293,1293
Bágyogszovát,47.5895,17.3604,Hungary,HU,Győr-Moson-Sopron,,1293,1293
Tiszabecs,48.0987,22.8222,Hungary,HU,Szabolcs-Szatmár-Bereg,,1292,1292
Gyarmat,47.4605,17.4981,Hungary,HU,Győr-Moson-Sopron,,1290,1290
Kocsola,46.5277,18.1821,Hungary,HU,Tolna,,1287,1287
Halmajugra,47.7610,20.0560,Hungary,HU,Heves,,1287,1287
Soltszentimre,46.7667,19.2833,Hungary,HU,Bács-Kiskun,,1284,1284
Börcs,47.6868,17.4996,Hungary,HU,Győr-Moson-Sopron,,1283,1283
Karancsság,48.1144,19.6558,Hungary,HU,Nógrád,,1274,1274
Boconád,47.6429,20.1881,Hungary,HU,Heves,,1274,1274
Iharosberény,46.3663,17.1112,Hungary,HU,Somogy,,1274,1274
Taktakenéz,48.0504,21.2174,Hungary,HU,Borsod-Abaúj-Zemplén,,1271,1271
Bagod,46.8853,16.7439,Hungary,HU,Zala,,1270,1270
Neszmély,47.7329,18.3451,Hungary,HU,Komárom-Esztergom,,1269,1269
Bénye,47.3500,19.5500,Hungary,HU,Pest,,1268,1268
Kétsoprony,46.7167,20.8667,Hungary,HU,Békés,,1268,1268
Egyházasrádóc,47.0881,16.6161,Hungary,HU,Vas,,1267,1267
Mezőszentgyörgy,46.9920,18.2772,Hungary,HU,Fejér,,1266,1266
Kajárpéc,47.4880,17.6344,Hungary,HU,Győr-Moson-Sopron,,1266,1266
Galambok,46.5220,17.1244,Hungary,HU,Zala,,1263,1263
Iván,47.4463,16.9122,Hungary,HU,Győr-Moson-Sopron,,1263,1263
Eperjeske,48.3500,22.2167,Hungary,HU,Szabolcs-Szatmár-Bereg,,1260,1260
Homokmégy,46.4833,19.0667,Hungary,HU,Bács-Kiskun,,1260,1260
Kővágószőlős,46.0813,18.1239,Hungary,HU,Baranya,,1256,1256
Kismarja,47.2500,21.8333,Hungary,HU,Hajdú-Bihar,,1254,1254
Komoró,48.3000,22.1167,Hungary,HU,Szabolcs-Szatmár-Bereg,,1253,1253
Szigetbecse,47.1333,18.9500,Hungary,HU,Pest,,1253,1253
Sopronkövesd,47.5500,16.7500,Hungary,HU,Győr-Moson-Sopron,,1249,1249
Kajdacs,46.5622,18.6244,Hungary,HU,Tolna,,1249,1249
Nárai,47.2000,16.5667,Hungary,HU,Vas,,1245,1245
Gyüre,48.1833,22.2833,Hungary,HU,Szabolcs-Szatmár-Bereg,,1244,1244
Gyúró,47.3683,18.7368,Hungary,HU,Fejér,,1244,1244
Szőlősgyörök,46.7110,17.6747,Hungary,HU,Somogy,,1241,1241
Pogány,45.9821,18.2562,Hungary,HU,Baranya,,1240,1240
Dalmand,46.4920,18.1899,Hungary,HU,Tolna,,1240,1240
Sióagárd,46.3893,18.6498,Hungary,HU,Tolna,,1239,1239
Hédervár,47.8324,17.4560,Hungary,HU,Győr-Moson-Sopron,,1237,1237
Magyarkeszi,46.7483,18.2356,Hungary,HU,Tolna,,1236,1236
Rohod,48.0333,22.1333,Hungary,HU,Szabolcs-Szatmár-Bereg,,1235,1235
Rum,47.1278,16.8442,Hungary,HU,Vas,,1234,1234
Kunsziget,47.7395,17.5208,Hungary,HU,Győr-Moson-Sopron,,1233,1233
Rém,46.2500,19.1500,Hungary,HU,Bács-Kiskun,,1233,1233
Paszab,48.1473,21.6669,Hungary,HU,Szabolcs-Szatmár-Bereg,,1232,1232
Keszü,46.0167,18.1833,Hungary,HU,Baranya,,1230,1230
Ilk,48.1167,22.2333,Hungary,HU,Szabolcs-Szatmár-Bereg,,1230,1230
Zebegény,47.7976,18.9100,Hungary,HU,Pest,,1227,1227
Szirák,47.8314,19.5319,Hungary,HU,Nógrád,,1226,1226
Nagybánhegyes,46.4667,20.9000,Hungary,HU,Békés,,1224,1224
Váncsod,47.2000,21.6500,Hungary,HU,Hajdú-Bihar,,1223,1223
Igrici,47.8674,20.8827,Hungary,HU,Borsod-Abaúj-Zemplén,,1221,1221
Bakonybél,47.2529,17.7296,Hungary,HU,Veszprém,,1221,1221
Márkó,47.1220,17.8132,Hungary,HU,Veszprém,,1214,1214
Szakmár,46.5500,19.0667,Hungary,HU,Bács-Kiskun,,1213,1213
Ináncs,48.2836,21.0681,Hungary,HU,Borsod-Abaúj-Zemplén,,1212,1212
Endrefalva,48.1279,19.5733,Hungary,HU,Nógrád,,1212,1212
Vanyarc,47.8212,19.4523,Hungary,HU,Nógrád,,1212,1212
Tarnazsadány,47.6740,20.1550,Hungary,HU,Heves,,1209,1209
Alsószentmárton,45.7904,18.3056,Hungary,HU,Baranya,,1207,1207
Pilisszentlászló,47.7167,18.9887,Hungary,HU,Pest,,1206,1206
Gyömöre,47.4979,17.5671,Hungary,HU,Győr-Moson-Sopron,,1206,1206
Bükkszentkereszt,48.0645,20.6334,Hungary,HU,Borsod-Abaúj-Zemplén,,1206,1206
Tard,47.8786,20.5988,Hungary,HU,Borsod-Abaúj-Zemplén,,1206,1206
Zalahaláp,46.9147,17.4571,Hungary,HU,Veszprém,,1204,1204
Kislőd,47.1455,17.6224,Hungary,HU,Veszprém,,1202,1202
Ravazd,47.5173,17.7512,Hungary,HU,Győr-Moson-Sopron,,1200,1200
Gerjen,46.4911,18.9028,Hungary,HU,Tolna,,1200,1200
Somogysárd,46.4136,17.5968,Hungary,HU,Somogy,,1197,1197
Lovászi,46.5500,16.5667,Hungary,HU,Zala,,1194,1194
Tenk,47.6560,20.3410,Hungary,HU,Heves,,1194,1194
Bakonszeg,47.1833,21.4500,Hungary,HU,Hajdú-Bihar,,1194,1194
Borsodszentgyörgy,48.1896,20.2089,Hungary,HU,Borsod-Abaúj-Zemplén,,1193,1193
Hencida,47.2500,21.7000,Hungary,HU,Hajdú-Bihar,,1191,1191
Pusztazámor,47.4029,18.7826,Hungary,HU,Pest,,1190,1190
Kehidakustány,46.8433,17.0944,Hungary,HU,Zala,,1187,1187
Gerendás,46.5970,20.8600,Hungary,HU,Békés,,1187,1187
Nyírcsászári,47.8644,22.1748,Hungary,HU,Szabolcs-Szatmár-Bereg,,1185,1185
Sarud,47.5950,20.5900,Hungary,HU,Heves,,1184,1184
Csabdi,47.5230,18.6102,Hungary,HU,Fejér,,1183,1183
Mezőcsokonya,46.4316,17.6465,Hungary,HU,Somogy,,1183,1183
Hetes,46.4217,17.6928,Hungary,HU,Somogy,,1182,1182
Súr,47.3708,18.0288,Hungary,HU,Komárom-Esztergom,,1182,1182
Mezőszemere,47.7460,20.5190,Hungary,HU,Heves,,1180,1180
Tarany,46.1823,17.3090,Hungary,HU,Somogy,,1180,1180
Magyarpolány,47.1702,17.5465,Hungary,HU,Veszprém,,1175,1175
Révfülöp,46.8326,17.6277,Hungary,HU,Veszprém,,1174,1174
Ecseg,47.8971,19.6041,Hungary,HU,Nógrád,,1174,1174
Nagyiván,47.4833,20.9333,Hungary,HU,Jász-Nagykun-Szolnok,,1174,1174
Furta,47.1333,21.4667,Hungary,HU,Hajdú-Bihar,,1170,1170
Kenézlő,48.1982,21.5295,Hungary,HU,Borsod-Abaúj-Zemplén,,1169,1169
Páhi,46.7167,19.4000,Hungary,HU,Bács-Kiskun,,1169,1169
Rezi,46.8333,17.2167,Hungary,HU,Zala,,1168,1168
Pápateszér,47.3823,17.7019,Hungary,HU,Veszprém,,1168,1168
Hidasnémeti,48.4995,21.2290,Hungary,HU,Borsod-Abaúj-Zemplén,,1165,1165
Detk,47.7500,20.1000,Hungary,HU,Heves,,1165,1165
Makád,47.0889,18.9253,Hungary,HU,Pest,,1165,1165
Csákberény,47.3459,18.3300,Hungary,HU,Fejér,,1165,1165
Inke,46.3925,17.1916,Hungary,HU,Somogy,,1164,1164
Ecsegfalva,47.1500,20.9167,Hungary,HU,Békés,,1164,1164
Szalonna,48.4476,20.7396,Hungary,HU,Borsod-Abaúj-Zemplén,,1163,1163
Szabolcsbáka,48.1500,22.1500,Hungary,HU,Szabolcs-Szatmár-Bereg,,1162,1162
Őriszentpéter,46.8389,16.4211,Hungary,HU,Vas,,1160,1160
Újléta,47.4667,21.8833,Hungary,HU,Hajdú-Bihar,,1159,1159
Nagyesztergár,47.2768,17.9052,Hungary,HU,Veszprém,,1156,1156
Regöly,46.5786,18.3906,Hungary,HU,Tolna,,1156,1156
Felgyő,46.6500,20.1000,Hungary,HU,Csongrád,,1155,1155
Balatonvilágos,46.9744,18.1653,Hungary,HU,Veszprém,,1153,1153
Hejőpapi,47.8964,20.9091,Hungary,HU,Borsod-Abaúj-Zemplén,,1152,1152
Szuhogy,48.3840,20.6751,Hungary,HU,Borsod-Abaúj-Zemplén,,1151,1151
Tataháza,46.1728,19.3000,Hungary,HU,Bács-Kiskun,,1151,1151
Szalánta,45.9500,18.2333,Hungary,HU,Baranya,,1149,1149
Juta,46.4062,17.7364,Hungary,HU,Somogy,,1146,1146
Borsodszirák,48.2606,20.7688,Hungary,HU,Borsod-Abaúj-Zemplén,,1145,1145
Kisar,48.0589,22.5156,Hungary,HU,Szabolcs-Szatmár-Bereg,,1145,1145
Páka,46.5833,16.6500,Hungary,HU,Zala,,1140,1140
Kurd,46.4447,18.3163,Hungary,HU,Tolna,,1139,1139
Máza,46.2790,18.4042,Hungary,HU,Baranya,,1138,1138
Mezőladány,48.2833,22.2167,Hungary,HU,Szabolcs-Szatmár-Bereg,,1138,1138
Teskánd,46.8556,16.7805,Hungary,HU,Zala,,1135,1135
Halimba,47.0331,17.5358,Hungary,HU,Veszprém,,1135,1135
Gyöngyösfalu,47.3183,16.5806,Hungary,HU,Vas,,1134,1134
Sáta,48.1844,20.3931,Hungary,HU,Borsod-Abaúj-Zemplén,,1133,1133
Lovászpatona,47.4325,17.6260,Hungary,HU,Veszprém,,1133,1133
Tiszaszentmárton,48.3833,22.2333,Hungary,HU,Szabolcs-Szatmár-Bereg,,1130,1130
Monostorapáti,46.9273,17.5568,Hungary,HU,Veszprém,,1129,1129
Parasznya,48.1697,20.6415,Hungary,HU,Borsod-Abaúj-Zemplén,,1128,1128
Babót,47.5749,17.0756,Hungary,HU,Győr-Moson-Sopron,,1128,1128
Gérce,47.2140,17.0181,Hungary,HU,Vas,,1124,1124
Bocfölde,46.7814,16.8426,Hungary,HU,Zala,,1123,1123
Vállaj,47.7642,22.3822,Hungary,HU,Szabolcs-Szatmár-Bereg,,1120,1120
Boldogkőváralja,48.3380,21.2358,Hungary,HU,Borsod-Abaúj-Zemplén,,1119,1119
Lesencetomaj,46.8566,17.3684,Hungary,HU,Veszprém,,1119,1119
Letkés,47.8833,18.7833,Hungary,HU,Pest,,1119,1119
Visonta,47.7800,20.0300,Hungary,HU,Heves,,1118,1118
Dömös,47.7648,18.9144,Hungary,HU,Komárom-Esztergom,,1116,1116
Ároktő,47.7308,20.9423,Hungary,HU,Borsod-Abaúj-Zemplén,,1116,1116
Visznek,47.6420,20.0270,Hungary,HU,Heves,,1113,1113
Nyírgelse,47.7622,21.9717,Hungary,HU,Szabolcs-Szatmár-Bereg,,1112,1112
Szentpéterszeg,47.2333,21.6167,Hungary,HU,Hajdú-Bihar,,1111,1111
Sajóhidvég,48.0042,20.9505,Hungary,HU,Borsod-Abaúj-Zemplén,,1109,1109
Bodrogkeresztúr,48.1603,21.3597,Hungary,HU,Borsod-Abaúj-Zemplén,,1109,1109
Somlóvásárhely,47.1204,17.3759,Hungary,HU,Veszprém,,1108,1108
Homokszentgyörgy,46.1178,17.5756,Hungary,HU,Somogy,,1108,1108
Balogunyom,47.1587,16.6456,Hungary,HU,Vas,,1106,1106
Cered,48.1454,19.9657,Hungary,HU,Nógrád,,1105,1105
Nyíribrony,48.0167,21.9667,Hungary,HU,Szabolcs-Szatmár-Bereg,,1104,1104
Tépe,47.3167,21.5833,Hungary,HU,Hajdú-Bihar,,1104,1104
Sokorópátka,47.4833,17.7000,Hungary,HU,Győr-Moson-Sopron,,1102,1102
Várdomb,46.2487,18.6870,Hungary,HU,Tolna,,1100,1100
Nagykónyi,46.5941,18.2008,Hungary,HU,Tolna,,1099,1099
Gelse,46.6027,16.9890,Hungary,HU,Zala,,1098,1098
Bárdudvarnok,46.3283,17.6862,Hungary,HU,Somogy,,1098,1098
Berzék,48.0244,20.9531,Hungary,HU,Borsod-Abaúj-Zemplén,,1096,1096
Murony,46.7667,21.0500,Hungary,HU,Békés,,1095,1095
Görgeteg,46.1473,17.4448,Hungary,HU,Somogy,,1093,1093
Kömlőd,47.5468,18.2605,Hungary,HU,Komárom-Esztergom,,1090,1090
Hernádvécse,48.4449,21.1675,Hungary,HU,Borsod-Abaúj-Zemplén,,1089,1089
Bácsborsód,46.0942,19.1589,Hungary,HU,Bács-Kiskun,,1087,1087
Lukácsháza,47.3500,16.5833,Hungary,HU,Vas,,1086,1086
Tótszerdahely,46.4000,16.8000,Hungary,HU,Zala,,1081,1081
Balatonberény,46.7068,17.3209,Hungary,HU,Somogy,,1081,1081
Erdőbénye,48.2682,21.3561,Hungary,HU,Borsod-Abaúj-Zemplén,,1081,1081
Bódvaszilas,48.5369,20.7301,Hungary,HU,Borsod-Abaúj-Zemplén,,1080,1080
Andocs,46.6500,17.9167,Hungary,HU,Somogy,,1078,1078
Nagyrécse,46.4895,17.0526,Hungary,HU,Zala,,1077,1077
Nézsa,47.8458,19.2934,Hungary,HU,Nógrád,,1073,1073
Varbó,48.1614,20.6181,Hungary,HU,Borsod-Abaúj-Zemplén,,1069,1069
Zákány,46.2513,16.9507,Hungary,HU,Somogy,,1068,1068
Csököly,46.2995,17.5608,Hungary,HU,Somogy,,1068,1068
Káld,47.1631,17.0458,Hungary,HU,Vas,,1065,1065
Szalaszend,48.3860,21.1231,Hungary,HU,Borsod-Abaúj-Zemplén,,1064,1064
Beloiannisz,47.1835,18.8241,Hungary,HU,Fejér,,1063,1063
Pálháza,48.4717,21.5094,Hungary,HU,Borsod-Abaúj-Zemplén,,1060,1060
Medgyesbodzás,46.5200,20.9700,Hungary,HU,Békés,,1060,1060
Balatongyörök,46.7616,17.3487,Hungary,HU,Zala,,1060,1060
Sárszentlőrinc,46.6240,18.6050,Hungary,HU,Tolna,,1060,1060
Mezőgyán,46.8667,21.5333,Hungary,HU,Békés,,1058,1058
Rétközberencs,48.2000,22.0167,Hungary,HU,Szabolcs-Szatmár-Bereg,,1057,1057
Veszprémvarsány,47.4294,17.8294,Hungary,HU,Győr-Moson-Sopron,,1057,1057
Dorogháza,47.9880,19.9006,Hungary,HU,Nógrád,,1053,1053
Balaton,48.0927,20.3062,Hungary,HU,Heves,,1053,1053
Szomor,47.5930,18.6633,Hungary,HU,Komárom-Esztergom,,1051,1051
Vásárosdombó,46.3059,18.1313,Hungary,HU,Baranya,,1048,1048
Székely,48.0586,21.9337,Hungary,HU,Szabolcs-Szatmár-Bereg,,1044,1044
Nyírtét,48.0167,21.9333,Hungary,HU,Szabolcs-Szatmár-Bereg,,1044,1044
Beszterec,48.1565,21.8380,Hungary,HU,Szabolcs-Szatmár-Bereg,,1043,1043
Tardona,48.1718,20.5339,Hungary,HU,Borsod-Abaúj-Zemplén,,1043,1043
Várvölgy,46.8667,17.3000,Hungary,HU,Zala,,1043,1043
Galgagyörk,47.7333,19.3833,Hungary,HU,Pest,,1041,1041
Bükkösd,46.1000,17.9833,Hungary,HU,Baranya,,1041,1041
Sajóecseg,48.1919,20.7748,Hungary,HU,Borsod-Abaúj-Zemplén,,1040,1040
Tolnanémedi,46.7154,18.4757,Hungary,HU,Tolna,,1040,1040
Nagylók,46.9789,18.6406,Hungary,HU,Fejér,,1040,1040
Nőtincs,47.8833,19.1500,Hungary,HU,Nógrád,,1038,1038
Penészlek,47.6333,22.1500,Hungary,HU,Szabolcs-Szatmár-Bereg,,1037,1037
Petőháza,47.5948,16.8934,Hungary,HU,Győr-Moson-Sopron,,1036,1036
Tiszaderzs,47.5167,20.6500,Hungary,HU,Jász-Nagykun-Szolnok,,1036,1036
Kajászó,47.3239,18.7198,Hungary,HU,Fejér,,1035,1035
Kölked,45.9500,18.7000,Hungary,HU,Baranya,,1035,1035
Olaszfalu,47.2434,17.9053,Hungary,HU,Veszprém,,1033,1033
Sarród,47.6317,16.8604,Hungary,HU,Győr-Moson-Sopron,,1032,1032
Kisvarsány,48.1500,22.3000,Hungary,HU,Szabolcs-Szatmár-Bereg,,1030,1030
Dormánd,47.7210,20.4180,Hungary,HU,Heves,,1028,1028
Nagylózs,47.5669,16.7708,Hungary,HU,Győr-Moson-Sopron,,1027,1027
Hejőkeresztúr,47.9633,20.8767,Hungary,HU,Borsod-Abaúj-Zemplén,,1025,1025
Kamut,46.7667,20.9833,Hungary,HU,Békés,,1025,1025
Bárna,48.1000,19.9333,Hungary,HU,Nógrád,,1024,1024
Ságújfalu,48.1038,19.6791,Hungary,HU,Nógrád,,1023,1023
Rábapordány,47.5667,17.3333,Hungary,HU,Győr-Moson-Sopron,,1023,1023
Tiborszállás,47.8167,22.4167,Hungary,HU,Szabolcs-Szatmár-Bereg,,1023,1023
Rábahidvég,47.0683,16.7439,Hungary,HU,Vas,,1022,1022
Bogád,46.0833,18.3333,Hungary,HU,Baranya,,1021,1021
Mihályi,47.5167,17.1000,Hungary,HU,Győr-Moson-Sopron,,1020,1020
Hahót,46.6500,16.9167,Hungary,HU,Zala,,1019,1019
Gyulaj,46.5075,18.2914,Hungary,HU,Tolna,,1019,1019
Balatonederics,46.8056,17.3779,Hungary,HU,Veszprém,,1018,1018
Himesháza,46.0833,18.5667,Hungary,HU,Baranya,,1017,1017
Cserépfalu,47.9404,20.5351,Hungary,HU,Borsod-Abaúj-Zemplén,,1017,1017
Tiszasas,46.8167,20.0833,Hungary,HU,Jász-Nagykun-Szolnok,,1015,1015
Kisnána,47.8520,20.1460,Hungary,HU,Heves,,1014,1014
Egervár,46.9355,16.8536,Hungary,HU,Zala,,1012,1012
Körösszegapáti,47.0333,21.6333,Hungary,HU,Hajdú-Bihar,,1012,1012
Magyarnándor,47.9674,19.3488,Hungary,HU,Nógrád,,1010,1010
Pázmándfalu,47.5705,17.7813,Hungary,HU,Győr-Moson-Sopron,,1010,1010
Bakonynána,47.2799,17.9711,Hungary,HU,Veszprém,,1009,1009
Aparhant,46.3321,18.4525,Hungary,HU,Tolna,,1009,1009
Csősz,47.0393,18.4139,Hungary,HU,Fejér,,1008,1008
Szászberek,47.3130,20.1010,Hungary,HU,Jász-Nagykun-Szolnok,,1006,1006
Zalaszentiván,46.8922,16.8995,Hungary,HU,Zala,,1005,1005
Somogyudvarhely,46.1763,17.1879,Hungary,HU,Somogy,,1005,1005
Gyékényes,46.2356,17.0006,Hungary,HU,Somogy,,1003,1003
Pusztamérges,46.3333,19.6833,Hungary,HU,Csongrád,,1002,1002
Berekfürdő,47.3833,20.8500,Hungary,HU,Jász-Nagykun-Szolnok,,1001,1001
